Key,City,Longitude,Latitude
Afghanistan/'Alaqahdari Dishu,'Alaqahdari Dishu,63.298019,30.43206
Afghanistan/Aibak,Aibak,68.015511,36.264679
Afghanistan/Anar Darah,Anar Darah,61.653969,32.758701
Afghanistan/Andkhoy,Andkhoy,65.123756,36.95293
Afghanistan/Arghestan,Arghestan,66.489258,31.559811
Afghanistan/Art Khwajah,Art Khwajah,69.479584,37.085709
Afghanistan/Asadabad,Asadabad,71.146973,34.873112
Afghanistan/Ashkasham,Ashkasham,71.533333,36.683331
Afghanistan/Asmar,Asmar,71.358093,35.033329
Afghanistan/Baghlan,Baghlan,68.70829,36.13068
Afghanistan/Balkh,Balkh,66.897202,36.756351
Afghanistan/Bamyan,Bamyan,67.827339,34.82156
Afghanistan/Baraki Barak,Baraki Barak,68.949203,33.967442
Afghanistan/Basawul,Basawul,70.872177,34.24749
Afghanistan/Bazarak,Bazarak,69.51519,35.31292
Afghanistan/Chaghcharan,Chaghcharan,65.250938,34.51952
Afghanistan/Chahar Burj,Chahar Burj,62.19165,34.244751
Afghanistan/Charikar,Charikar,69.26667,34.950001
Afghanistan/Chiras,Chiras,65.982338,35.41674
Afghanistan/Cool Urhajó,Cool Urhajó,67.345161,34.26545
Afghanistan/Dadshan,Dadshan,62.43626,34.242031
Afghanistan/Darwazkay,Darwazkay,71.047577,35.024521
Afghanistan/Darzab,Darzab,65.378281,35.97744
Afghanistan/Dasht-e Archi,Dasht-e Archi,69.166672,37.133331
Afghanistan/Deri Mila,Deri Mila,70.060669,33.69471
Afghanistan/Farah,Farah,62.099998,32.400002
Afghanistan/Farkhar,Farkhar,69.857826,36.57288
Afghanistan/Fayzabad,Fayzabad,70.580017,37.116638
Afghanistan/Gardez,Gardez,69.225922,33.597439
Afghanistan/Ghazni,Ghazni,68.416664,33.533333
Afghanistan/Ghormach,Ghormach,63.782639,35.730621
Afghanistan/Herat,Herat,62.233334,34.216667
Afghanistan/Hukumati Azrah,Hukumati Azrah,69.645729,34.17355
Afghanistan/Hukumati Dahanah-ye Ghori,Hukumati Dahanah-ye Ghori,68.488693,35.90617
Afghanistan/Imam Sahib,Imam Sahib,68.93644,37.188969
Afghanistan/Jabal Saraj,Jabal Saraj,69.237778,35.118328
Afghanistan/Jalalabad,Jalalabad,70.5,34.400002
Afghanistan/Jurm,Jurm,70.834213,36.864769
Afghanistan/Kabul,Kabul,69.216667,34.549999
Afghanistan/Kafir Qala,Kafir Qala,61.066669,34.666672
Afghanistan/Kandahar,Kandahar,65.849998,31.5
Afghanistan/Karukh,Karukh,62.5863,34.481079
Afghanistan/Khanabad,Khanabad,69.115562,36.682499
Afghanistan/Khandud,Khandud,72.318001,36.951271
Afghanistan/Kharbuti,Kharbuti,66.58268,31.111
Afghanistan/Khash,Khash,62.79055,31.52919
Afghanistan/Khost,Khost,69.92041,33.339512
Afghanistan/Khulm,Khulm,67.698257,36.697361
Afghanistan/Kondoz,Kondoz,68.900002,36.683334
Afghanistan/Kuhsan,Kuhsan,61.197781,34.653889
Afghanistan/Kushk,Kushk,61.952209,33.29565
Afghanistan/Lab-Sar,Lab-Sar,66.83799,36.02634
Afghanistan/Larkird,Larkird,66.664093,35.489361
Afghanistan/Lashkar Gah,Lashkar Gah,64.371613,31.593821
Afghanistan/Markaz-e Hukumat-e Darweshan,Markaz-e Hukumat-e Darweshan,64.193398,31.13232
Afghanistan/Markaz-e Woluswali-ye Achin,Markaz-e Woluswali-ye Achin,70.707779,34.125832
Afghanistan/Maydanshakhr,Maydanshakhr,68.86618,34.395611
Afghanistan/Maymana,Maymana,64.783607,35.921391
Afghanistan/Mazar-E-Sharif,Mazar-E-Sharif,67.216667,36.700001
Afghanistan/Mehtar Lam,Mehtar Lam,70.209442,34.671391
Afghanistan/Mir Bachah Kot,Mir Bachah Kot,69.118988,34.749989
Afghanistan/Mirabad,Mirabad,61.838299,30.436239
Afghanistan/Mulkanah,Mulkanah,71.061127,34.9459
Afghanistan/Munai,Munai,71.258369,34.981209
Afghanistan/Nahrin,Nahrin,69.13343,36.064899
Afghanistan/Paghman,Paghman,68.950912,34.587872
Afghanistan/Panjab,Panjab,67.02327,34.387951
Afghanistan/Parun,Parun,70.922607,35.420639
Afghanistan/Pul-e 'Alam,Pul-e 'Alam,69.022743,33.995289
Afghanistan/Pul-e Khumri,Pul-e Khumri,68.715118,35.94458
Afghanistan/Qal'ah-ye Shahr,Qal'ah-ye Shahr,65.567596,35.547291
Afghanistan/Qala i Naw,Qala i Naw,63.12891,34.98735
Afghanistan/Qalat,Qalat,66.908333,32.105751
Afghanistan/Qarah Bagh,Qarah Bagh,61.77589,34.940231
Afghanistan/Qarawul,Qarawul,68.780197,37.219589
Afghanistan/Qarchi Gak,Qarchi Gak,66.78891,37.039989
Afghanistan/Qarqin,Qarqin,66.043579,37.41853
Afghanistan/Rudbar,Rudbar,62.599998,30.15
Afghanistan/Rustaq,Rustaq,69.830452,37.126041
Afghanistan/Sang-e Charak,Sang-e Charak,66.436943,35.84972
Afghanistan/Sangin,Sangin,64.835899,32.07275
Afghanistan/Sar-e Pul,Sar-e Pul,65.932487,36.215439
Afghanistan/Shahrak,Shahrak,64.305199,34.10738
Afghanistan/Sharan,Sharan,68.730453,33.175678
Afghanistan/Shibirghan,Shibirghan,65.752899,36.667568
Afghanistan/Shindand,Shindand,62.1474,33.30294
Afghanistan/Sidqabad,Sidqabad,69.35112,35.02298
Afghanistan/Tagab,Tagab,69.64917,34.855011
Afghanistan/Tagaw-Bay,Tagaw-Bay,66.061638,35.699409
Afghanistan/Tareen,Tareen,65.878059,32.629978
Afghanistan/Tir Pul,Tir Pul,61.268951,34.594311
Afghanistan/Tukzar,Tukzar,66.421318,35.948311
Afghanistan/Uruzgan,Uruzgan,66.63253,32.92775
Afghanistan/Yangi Qal'ah,Yangi Qal'ah,69.611313,37.465721
Afghanistan/Zarah Sharan,Zarah Sharan,68.79213,33.146412
Afghanistan/Zaranj,Zaranj,61.860371,30.95962
Afghanistan/Zarghun Shahr,Zarghun Shahr,68.445732,32.84734
Afghanistan/Zindah Jan,Zindah Jan,61.74675,34.34264
Albania/Durres,Durres,19.450001,41.299999
Algeria/'Ain El Turk,'Ain El Turk,-0.8,35.733334
Algeria/'Aïn Abid,'Aïn Abid,6.94333,36.231941
Algeria/'Aïn Benian,'Aïn Benian,2.92185,36.802769
Algeria/'Aïn Boucif,'Aïn Boucif,3.1585,35.891232
Algeria/'Aïn Deheb,'Aïn Deheb,1.54698,34.842178
Algeria/'Aïn Merane,'Aïn Merane,0.97037,36.162769
Algeria/'Aïn Temouchent,'Aïn Temouchent,-1.14037,35.297489
Algeria/'Aïn el Bell,'Aïn el Bell,3.22475,34.3438
Algeria/'Aïn el Berd,'Aïn el Berd,-0.51278,35.363949
Algeria/'Aïn el Hadjar,'Aïn el Hadjar,0.14528,34.758461
Algeria/'Aïn el Hammam,'Aïn el Hammam,4.30619,36.564709
Algeria/'Aïn el Melh,'Aïn el Melh,4.16383,34.841461
Algeria/Ababsa,Ababsa,0.72334,35.70697
Algeria/Abou el Hassan,Abou el Hassan,1.19616,36.416569
Algeria/Adrar,Adrar,-0.29388,27.87429
Algeria/Aflou,Aflou,2.116667,34.116665
Algeria/Ain Oussera,Ain Oussera,2.883333,35.516666
Algeria/Ain el Hadjel,Ain el Hadjel,3.88153,35.670029
Algeria/Akbou,Akbou,4.53494,36.4575
Algeria/Algiers,Algiers,3.25,36.716667
Algeria/Amizour,Amizour,4.90131,36.640221
Algeria/Ammi Moussa,Ammi Moussa,1.11143,35.867809
Algeria/Annaba,Annaba,7.816667,36.833332
Algeria/Aoulef,Aoulef,1.083333,26.966667
Algeria/Arbatache,Arbatache,3.37127,36.63773
Algeria/Arhribs,Arhribs,4.31158,36.79361
Algeria/Arris,Arris,6.34706,35.258808
Algeria/Azazga,Azazga,4.37222,36.74472
Algeria/Azzaba,Azzaba,7.10528,36.739441
Algeria/Aïn Arnat,Aïn Arnat,5.31347,36.186829
Algeria/Aïn Bessem,Aïn Bessem,3.67319,36.293331
Algeria/Aïn Beïda,Aïn Beïda,7.39278,35.796391
Algeria/Aïn Defla,Aïn Defla,1.9679,36.264061
Algeria/Aïn Fakroun,Aïn Fakroun,6.87374,35.971081
Algeria/Aïn Kercha,Aïn Kercha,6.69528,35.924721
Algeria/Aïn Sefra,Aïn Sefra,-0.58333,32.75
Algeria/Aïn Sidi Harrat,Aïn Sidi Harrat,0.71261,35.701118
Algeria/Aïn Smara,Aïn Smara,6.50135,36.267399
Algeria/Aïn Taya,Aïn Taya,3.28694,36.793331
Algeria/Aïn Touta,Aïn Touta,5.90001,35.376751
Algeria/Aïn el Bya,Aïn el Bya,-0.30178,35.80389
Algeria/Babor-Ville,Babor-Ville,5.5393,36.489941
Algeria/Baraki,Baraki,3.09606,36.66655
Algeria/Barbacha,Barbacha,4.96667,36.566669
Algeria/Barika,Barika,5.36584,35.389011
Algeria/Batna,Batna,6.183333,35.549999
Algeria/Bechar,Bechar,-2.25,31.65
Algeria/Ben Mehidi,Ben Mehidi,7.9064,36.769669
Algeria/Beni Amrane,Beni Amrane,3.59115,36.66774
Algeria/Beni Douala,Beni Douala,4.08282,36.619541
Algeria/Beni Mered,Beni Mered,2.86131,36.523891
Algeria/Beni Mester,Beni Mester,-1.42319,34.870449
Algeria/Beni Saf,Beni Saf,-1.38226,35.300991
Algeria/Bensekrane,Bensekrane,-1.22431,35.07465
Algeria/Berrahal,Berrahal,7.45333,36.835281
Algeria/Berriane,Berriane,3.7669,32.826481
Algeria/Berrouaghia,Berrouaghia,2.91085,36.135159
Algeria/Besbes,Besbes,7.84722,36.702221
Algeria/Bir el Ater,Bir el Ater,8.06024,34.744881
Algeria/Bir el Djir,Bir el Djir,-0.545,35.720001
Algeria/Birine,Birine,3.225,35.634998
Algeria/Birkhadem,Birkhadem,3.05002,36.714989
Algeria/Biskra,Biskra,5.733333,34.799999
Algeria/Blida,Blida,2.816667,36.5
Algeria/Boghni,Boghni,3.95306,36.542221
Algeria/Bordj Ghdir,Bordj Ghdir,4.89806,35.901112
Algeria/Bordj Zemoura,Bordj Zemoura,4.85668,36.27462
Algeria/Bordj el Kiffan,Bordj el Kiffan,3.19248,36.748711
Algeria/Bou Adjem,Bou Adjem,5.066667,36.716667
Algeria/Bou Hanifia el Hamamat,Bou Hanifia el Hamamat,-0.05037,35.314732
Algeria/Bou Ismaïl,Bou Ismaïl,2.69007,36.64262
Algeria/Bou Tlelis,Bou Tlelis,-0.8996,35.57272
Algeria/Boudjima,Boudjima,4.15187,36.802181
Algeria/Boudouaou,Boudouaou,3.40995,36.727348
Algeria/Boufarik,Boufarik,2.91214,36.57412
Algeria/Bougaa,Bougaa,5.08843,36.332932
Algeria/Bougara,Bougara,3.081,36.541779
Algeria/Bouinan,Bouinan,2.99194,36.53167
Algeria/Boukadir,Boukadir,1.12602,36.066292
Algeria/Boumahra Ahmed,Boumahra Ahmed,7.51389,36.458328
Algeria/Boumerdas,Boumerdas,3.47717,36.766392
Algeria/Bouïra,Bouïra,3.902,36.374889
Algeria/Boû Arfa,Boû Arfa,2.81464,36.462978
Algeria/Brezina,Brezina,1.26082,33.098919
Algeria/Chabet el Ameur,Chabet el Ameur,3.69474,36.637089
Algeria/Charef,Charef,2.79503,34.620979
Algeria/Cheaïbia,Cheaïbia,0.71707,35.713589
Algeria/Chebli,Chebli,3.00917,36.577221
Algeria/Chelghoum el Aïd,Chelghoum el Aïd,6.16651,36.162861
Algeria/Chemini,Chemini,4.61667,36.599998
Algeria/Cheraga,Cheraga,2.95924,36.76775
Algeria/Cheria,Cheria,7.75194,35.27306
Algeria/Chetouane,Chetouane,-1.29512,34.921291
Algeria/Chiffa,Chiffa,2.73873,36.462929
Algeria/Chlef,Chlef,1.33452,36.165249
Algeria/Chorfa,Chorfa,4.32636,36.365051
Algeria/Constantine,Constantine,6.616667,36.283333
Algeria/Dar Chioukh,Dar Chioukh,3.48543,34.896381
Algeria/Dar el Beïda,Dar el Beïda,3.2125,36.713329
Algeria/Debila,Debila,6.95,33.51667
Algeria/Dellys,Dellys,3.91311,36.91716
Algeria/Didouche Mourad,Didouche Mourad,6.63639,36.452499
Algeria/Djamaa,Djamaa,5.99306,33.533878
Algeria/Djanet,Djanet,9.466666,24.549999
Algeria/Djebilet Rosfa,Djebilet Rosfa,0.83496,34.86375
Algeria/Djidiouia,Djidiouia,0.82871,35.92989
Algeria/Douera,Douera,2.94444,36.669998
Algeria/Draa Ben Khedda,Draa Ben Khedda,3.96223,36.73436
Algeria/Draa el Mizan,Draa el Mizan,3.8334,36.536282
Algeria/Drean,Drean,7.75111,36.684818
Algeria/Ech Chettia,Ech Chettia,1.25538,36.195911
Algeria/El Abadia,El Abadia,1.68609,36.269508
Algeria/El Abiodh Sidi Cheikh,El Abiodh Sidi Cheikh,0.54839,32.893002
Algeria/El Achir,El Achir,4.62744,36.063862
Algeria/El Affroun,El Affroun,2.62528,36.4701
Algeria/El Amria,El Amria,-1.01577,35.524391
Algeria/El Aouinet,El Aouinet,7.88672,35.866909
Algeria/El Attaf,El Attaf,1.67187,36.22393
Algeria/El Bayadh,El Bayadh,1.01927,33.683182
Algeria/El Eulma,El Eulma,5.69016,36.152809
Algeria/El Golea,El Golea,2.866667,30.566668
Algeria/El Hadjar,El Hadjar,7.73684,36.803768
Algeria/El Hadjira,El Hadjira,5.51259,32.613361
Algeria/El Idrissia,El Idrissia,2.52749,34.445419
Algeria/El Kala,El Kala,8.44333,36.895561
Algeria/El Kerma,El Kerma,-0.533333,35.549999
Algeria/El Kseur,El Kseur,4.8555,36.67942
Algeria/El Malah,El Malah,-1.09238,35.39138
Algeria/El Oued,El Oued,6.86319,33.356079
Algeria/El Tarf,El Tarf,8.31377,36.7672
Algeria/Es Senia,Es Senia,-0.62397,35.647789
Algeria/Feraoun,Feraoun,4.85454,36.560398
Algeria/Freha,Freha,4.3155,36.752338
Algeria/Frenda,Frenda,1.04945,35.065441
Algeria/Ghardaia,Ghardaia,3.67347,32.49094
Algeria/Hadjout,Hadjout,2.41382,36.512569
Algeria/Hamaguir,Hamaguir,-3.05,30.9
Algeria/Hamma Bouziane,Hamma Bouziane,6.59603,36.412048
Algeria/Hammam Bou Hadjar,Hammam Bou Hadjar,-0.96778,35.378891
Algeria/Hammamet,Hammamet,7.95184,35.44862
Algeria/Hassi Messaoud,Hassi Messaoud,6.15,31.683332
Algeria/Hennaya,Hennaya,-1.36806,34.951389
Algeria/Héliopolis,Héliopolis,7.44278,36.503609
Algeria/I-n-Amguel,I-n-Amguel,5.15,23.799999
Algeria/I-n-Eker,I-n-Eker,5.116667,24.1
Algeria/I-n-Salah,I-n-Salah,2.516667,27.25
Algeria/Ighram,Ighram,4.50532,36.462952
Algeria/Illizi,Illizi,8.416667,26.5
Algeria/Isser,Isser,3.66924,36.71859
Algeria/Jijel,Jijel,5.783333,36.833332
Algeria/Kerkera,Kerkera,6.58556,36.929169
Algeria/Khemis el Khechna,Khemis el Khechna,3.3308,36.649971
Algeria/Khenchela,Khenchela,7.14333,35.435829
Algeria/Kolea,Kolea,2.76845,36.638882
Algeria/Ksar Chellala,Ksar Chellala,2.31889,35.212219
Algeria/Ksar el Boukhari,Ksar el Boukhari,2.74905,35.888889
Algeria/L'Arbaa Naït Irathen,L'Arbaa Naït Irathen,4.19864,36.631119
Algeria/Laghouat,Laghouat,2.933333,33.766666
Algeria/Lakhdaria,Lakhdaria,3.5933,36.564629
Algeria/Larbaâ,Larbaâ,3.15434,36.564709
Algeria/M'Sila,M'Sila,4.54194,35.70583
Algeria/Makouda,Makouda,4.06273,36.785671
Algeria/Mansourah,Mansourah,4.45192,36.08725
Algeria/Mansoûra,Mansoûra,-1.33935,34.86158
Algeria/Mascara,Mascara,0.14027,35.396641
Algeria/Mazouna,Mazouna,0.89865,36.122318
Algeria/Meftah,Meftah,3.22248,36.620399
Algeria/Megarine,Megarine,6.08695,33.191952
Algeria/Mehdia,Mehdia,1.75714,35.43058
Algeria/Mekla,Mekla,4.26378,36.681782
Algeria/Melouza,Melouza,4.18665,35.979988
Algeria/Meridja Tahtania,Meridja Tahtania,-2.95,31.566668
Algeria/Merouana,Merouana,5.91186,35.631062
Algeria/Mers el Kebir,Mers el Kebir,-0.7081,35.727901
Algeria/Meskiana,Meskiana,7.66606,35.630581
Algeria/Messaad,Messaad,3.50309,34.154289
Algeria/Metlili Chaamba,Metlili Chaamba,3.63333,32.26667
Algeria/Mila,Mila,6.26444,36.450279
Algeria/Mouzaïa,Mouzaïa,2.68991,36.466949
Algeria/Médéa,Médéa,2.75393,36.264172
Algeria/Naama,Naama,-0.31667,33.26667
Algeria/Naciria,Naciria,3.83163,36.74625
Algeria/Nedroma,Nedroma,-1.74799,35.013611
Algeria/Oran,Oran,0.6,35.633335
Algeria/Ouallene,Ouallene,1.233333,24.6
Algeria/Ouargla,Ouargla,5.4,31.916666
Algeria/Oued Rhiou,Oued Rhiou,0.91896,35.961239
Algeria/Oued Sly,Oued Sly,1.19949,36.101238
Algeria/Oued el Abtal,Oued el Abtal,0.68778,35.455952
Algeria/Oued el Alleug,Oued el Alleug,2.79028,36.555279
Algeria/Ouled Kouadria,Ouled Kouadria,3.4,36.75
Algeria/Ouled Mimoun,Ouled Mimoun,-1.03394,34.90472
Algeria/Ouled Moussa,Ouled Moussa,3.36661,36.683941
Algeria/Oum el Bouaghi,Oum el Bouaghi,7.11353,35.875408
Algeria/Oumache,Oumache,5.68092,34.692921
Algeria/Reggane,Reggane,0.283333,26.683332
Algeria/Reghaïa,Reghaïa,3.34018,36.73587
Algeria/Reguiba,Reguiba,6.70326,33.563911
Algeria/Relizane,Relizane,0.55599,35.737339
Algeria/Robbah,Robbah,6.90984,33.279659
Algeria/Rouachdia,Rouachdia,0.73055,35.7085
Algeria/Rouached,Rouached,6.04267,36.457741
Algeria/Rouiba,Rouiba,3.28079,36.738289
Algeria/Rouissat,Rouissat,5.35018,31.924271
Algeria/Râs el Aïoun,Râs el Aïoun,5.6453,35.67384
Algeria/Râs el Oued,Râs el Oued,5.03107,35.944099
Algeria/Salah Bey,Salah Bey,5.29053,35.8545
Algeria/Saoula,Saoula,3.02462,36.704559
Algeria/Sebdou,Sebdou,-1.33143,34.637032
Algeria/Seddouk,Seddouk,4.68611,36.547218
Algeria/Sedrata,Sedrata,7.53376,36.128681
Algeria/Sfizef,Sfizef,-0.24435,35.234638
Algeria/Sidi Abdelli,Sidi Abdelli,-1.13706,35.06937
Algeria/Sidi Akkacha,Sidi Akkacha,1.30258,36.464722
Algeria/Sidi Aïssa,Sidi Aïssa,3.77236,35.885479
Algeria/Sidi Harrat Benaissa,Sidi Harrat Benaissa,0.71658,35.70784
Algeria/Sidi Khaled,Sidi Khaled,4.98785,34.387001
Algeria/Sidi Moussa,Sidi Moussa,3.08783,36.606369
Algeria/Sidi Mérouane,Sidi Mérouane,6.26111,36.520561
Algeria/Sidi Okba,Sidi Okba,5.89833,34.745121
Algeria/Sidi ech Chahmi,Sidi ech Chahmi,-0.52168,35.659031
Algeria/Sig,Sig,-0.19369,35.52832
Algeria/Skikda,Skikda,6.95,36.933334
Algeria/Smala,Smala,0.75437,35.716518
Algeria/Sougueur,Sougueur,1.49612,35.18568
Algeria/Souk Ahras,Souk Ahras,7.95111,36.286388
Algeria/Souma,Souma,2.90528,36.51833
Algeria/Sour el Ghozlane,Sour el Ghozlane,3.69123,36.147659
Algeria/Sraoulia,Sraoulia,0.71285,35.71434
Algeria/Tadmaït,Tadmaït,3.90045,36.744129
Algeria/Tamalous,Tamalous,6.64018,36.837631
Algeria/Tamanrasset,Tamanrasset,5.516667,22.783333
Algeria/Tazoult-Lambese,Tazoult-Lambese,6.26074,35.481709
Algeria/Tebesbest,Tebesbest,6.08333,33.116669
Algeria/Telerghma,Telerghma,6.366667,36.116665
Algeria/Thenia,Thenia,3.55665,36.725441
Algeria/Theniet el Had,Theniet el Had,2.02806,35.871109
Algeria/Tiaret,Tiaret,1.31699,35.371029
Algeria/Timimoun,Timimoun,0.283333,29.233334
Algeria/Timizart,Timizart,4.26667,36.799999
Algeria/Tindouf,Tindouf,-8.166667,27.700001
Algeria/Tipasa,Tipasa,2.4475,36.589722
Algeria/Tirmitine,Tirmitine,3.98143,36.653931
Algeria/Tissemsilt,Tissemsilt,1.81081,35.60722
Algeria/Tizi Gheniff,Tizi Gheniff,3.77445,36.58839
Algeria/Tizi Ouzou,Tizi Ouzou,4.04591,36.711819
Algeria/Tizi Rached,Tizi Rached,4.19176,36.671761
Algeria/Tizi-n-Tleta,Tizi-n-Tleta,4.05712,36.545689
Algeria/Tlemcen,Tlemcen,-1.466667,35.016666
Algeria/Tolga,Tolga,5.37845,34.72224
Algeria/Touggourt,Touggourt,6.05796,33.10527
Algeria/Tébessa,Tébessa,8.12417,35.404171
Algeria/Zaouia Benameur,Zaouia Benameur,0.72939,35.710491
Algeria/Zaouia Sidi Moussa,Zaouia Sidi Moussa,6.833333,28.133333
Algeria/Zemoura,Zemoura,0.75509,35.722511
Algeria/Zeralda,Zeralda,2.84244,36.711689
Algeria/Zeribet el Oued,Zeribet el Oued,6.51109,34.682838
Algeria/el hed,el hed,4.77361,36.650002
American Samoa/Pago Pago,Pago Pago,-170.71666,-14.334
Angola/Benguela,Benguela,13.40547,-12.57626
Angola/Cabinda,Cabinda,12.2,-5.583333
Angola/Caconda,Caconda,15.06667,-13.73333
Angola/Caluquembe,Caluquembe,14.68333,-13.78333
Angola/Camabatela,Camabatela,15.37495,-8.18812
Angola/Camacupa,Camacupa,17.48333,-12.01667
Angola/Carvalho,Carvalho,20.416666,-9.683333
Angola/Catabola,Catabola,17.283331,-12.15
Angola/Catumbela,Catumbela,13.54677,-12.43002
Angola/Caxito,Caxito,13.66425,-8.57848
Angola/Cazaji,Cazaji,20.701481,-11.06715
Angola/Caála,Caála,15.56056,-12.8525
Angola/Dundo,Dundo,20.833334,-7.366667
Angola/Lobito,Lobito,13.533334,-12.366667
Angola/Longonjo,Longonjo,15.25333,-12.90667
Angola/Luanda,Luanda,13.233334,-8.85
Angola/Luau,Luau,22.224661,-10.70727
Angola/Lucapa,Lucapa,20.744659,-8.41915
Angola/Lumeje,Lumeje,20.783331,-11.55
Angola/Luso,Luso,19.85,-11.75
Angola/Léua,Léua,20.450001,-11.65
Angola/Malange,Malange,16.333334,-9.516666
Angola/Mbanza Congo,Mbanza Congo,14.2401,-6.26703
Angola/Mocamedes,Mocamedes,12.15,-15.2
Angola/N'dalatando,N'dalatando,14.91162,-9.29782
Angola/Nova Lisboa,Nova Lisboa,15.75,-12.8
Angola/Nzeto,Nzeto,12.8666,-7.23116
Angola/Pereira De Ca,Pereira De Ca,15.666667,-17.049999
Angola/Quibala,Quibala,14.97995,-10.73366
Angola/Sa Da Bandeira,Sa Da Bandeira,13.566667,-14.916667
Angola/Serpa Pinto,Serpa Pinto,17.683332,-14.65
Angola/Silva Porto,Silva Porto,16.950001,-12.383333
Angola/Soyo,Soyo,12.36894,-6.1349
Angola/Sumbe,Sumbe,13.84371,-11.20605
Angola/Uíge,Uíge,15.06131,-7.60874
Angola/Waco-Kungo,Waco-Kungo,15.11719,-11.35669
Anguilla/Blowing Point Village,Blowing Point Village,-63.083328,18.16667
Anguilla/The Valley,The Valley,-63.116665,18.049999
Antarctica/Cape Denison,Cape Denison,142.666672,-67.0
Antarctica/Davis,Davis,77.966667,-68.583336
Antarctica/Deception Island,Deception Island,-60.566666,-62.983334
Antarctica/Esperanza,Esperanza,-56.983334,-63.400002
Antarctica/General San Martin,General San Martin,-67.01667,-68.183334
Antarctica/Islas Orcadas,Islas Orcadas,-44.716667,-60.75
Antarctica/Komsomolskaya,Komsomolskaya,97.48333,-74.083336
Antarctica/Little America,Little America,-162.199997,-78.183334
Antarctica/Mawson Station,Mawson Station,62.883335,-67.599998
Antarctica/McMurdo Sound,McMurdo Sound,166.96666,-77.866669
Antarctica/Mirnyy,Mirnyy,93.01667,-66.550003
Antarctica/Oasis,Oasis,100.716667,-66.300003
Antarctica/Pionerskaya,Pionerskaya,95.5,-69.73333
Antarctica/Sanae,Sanae,-2.35,-70.316666
Antarctica/Vostok 2,Vostok 2,106.866669,-78.449997
Antigua and Barbuda/Aberdeen,Aberdeen,-61.816669,17.066669
Antigua and Barbuda/All Saints,All Saints,-61.79303,17.06671
Antigua and Barbuda/Barnes Hill,Barnes Hill,-61.799999,17.15
Antigua and Barbuda/Burkes,Burkes,-61.76667,17.049999
Antigua and Barbuda/Codrington,Codrington,-61.783333,17.116667
Antigua and Barbuda/Jennings Village,Jennings Village,-61.865822,17.077789
Antigua and Barbuda/Jolly Harbour,Jolly Harbour,-61.886459,17.066219
Antigua and Barbuda/Mercers Creek,Mercers Creek,-61.73333,17.08333
Antigua and Barbuda/Mount William,Mount William,-61.799999,17.033331
Antigua and Barbuda/Pares,Pares,-61.75,17.08333
Antigua and Barbuda/Parham,Parham,-61.770458,17.096821
Antigua and Barbuda/Saint John's,Saint John's,-62.683334,17.299999
Antigua and Barbuda/Yorks,Yorks,-61.866669,17.08333
Argentina/28 de Noviembre,28 de Noviembre,-72.213821,-51.5839
Argentina/Abra Pampa,Abra Pampa,-65.696968,-22.72049
Argentina/Achiras,Achiras,-64.993309,-33.175381
Argentina/Adelia María,Adelia María,-64.020973,-33.631519
Argentina/Agua de Oro,Agua de Oro,-64.300171,-31.06661
Argentina/Aguilares,Aguilares,-65.614273,-27.4338
Argentina/Alba Posse,Alba Posse,-54.682621,-27.56978
Argentina/Albardón,Albardón,-68.525558,-31.43722
Argentina/Alberdi,Alberdi,-58.233334,-26.200001
Argentina/Aldea San Antonio,Aldea San Antonio,-58.703331,-32.62376
Argentina/Alderetes,Alderetes,-65.133331,-26.816669
Argentina/Alejandro Roca,Alejandro Roca,-63.718491,-33.353691
Argentina/Alejo Ledesma,Alejo Ledesma,-62.623039,-33.60643
Argentina/Alferez San Martin,Alferez San Martin,-62.333332,-38.683334
Argentina/Almafuerte,Almafuerte,-55.39497,-27.50518
Argentina/Alpachiri,Alpachiri,-63.774448,-37.377041
Argentina/Alta Gracia,Alta Gracia,-64.428261,-31.65292
Argentina/Alta Italia,Alta Italia,-64.11496,-35.3335
Argentina/Alto Río Senguer,Alto Río Senguer,-70.819817,-45.04105
Argentina/Altos de Chipión,Altos de Chipión,-62.337269,-30.9559
Argentina/Aluminé,Aluminé,-70.919701,-39.236858
Argentina/Alvear,Alvear,-56.55043,-29.09683
Argentina/Ancasti,Ancasti,-65.50145,-28.812469
Argentina/Andacollo,Andacollo,-70.669121,-37.179451
Argentina/Andalgala,Andalgala,-66.333336,-27.6
Argentina/Anguil,Anguil,-64.010246,-36.525669
Argentina/Antofagasta de la Sierra,Antofagasta de la Sierra,-67.406357,-26.059401
Argentina/Apolinario Saravia,Apolinario Saravia,-63.99535,-24.43276
Argentina/Aranguren,Aranguren,-60.161072,-32.242519
Argentina/Arata,Arata,-64.356209,-35.63895
Argentina/Arauco,Arauco,-66.79438,-28.5805
Argentina/Arias,Arias,-62.402721,-33.644112
Argentina/Aristóbulo del Valle,Aristóbulo del Valle,-54.896259,-27.096251
Argentina/Armstrong,Armstrong,-61.602219,-32.78215
Argentina/Arroyito,Arroyito,-63.050018,-31.420219
Argentina/Arroyo Cabral,Arroyo Cabral,-63.40126,-32.491192
Argentina/Arroyo Seco,Arroyo Seco,-60.508629,-33.154888
Argentina/Arroyo del Medio,Arroyo del Medio,-55.416672,-27.700001
Argentina/Arrufó,Arrufó,-61.728619,-30.232809
Argentina/Ataliva Roca,Ataliva Roca,-64.283333,-37.01667
Argentina/Avellaneda,Avellaneda,-59.65834,-29.117611
Argentina/Aviá Terai,Aviá Terai,-60.729198,-26.68532
Argentina/Azara,Azara,-55.677971,-28.0616
Argentina/Azul,Azul,-59.833332,-36.733334
Argentina/Añatuya,Añatuya,-62.834721,-28.46064
Argentina/Añelo,Añelo,-68.788399,-38.354408
Argentina/Bahia Blanca,Bahia Blanca,-62.166668,-38.733334
Argentina/Balnearia,Balnearia,-62.667332,-31.008801
Argentina/Barrancas,Barrancas,-69.916672,-36.816669
Argentina/Barranqueras,Barranqueras,-58.935791,-27.48299
Argentina/Basail,Basail,-59.299999,-27.866671
Argentina/Bella Italia,Bella Italia,-61.423962,-31.27268
Argentina/Bella Vista,Bella Vista,-65.303146,-27.03084
Argentina/Beltrán,Beltrán,-64.060982,-27.82913
Argentina/Bernardo Larroudé,Bernardo Larroudé,-63.582531,-35.02449
Argentina/Bernardo de Irigoyen,Bernardo de Irigoyen,-53.645809,-26.255199
Argentina/Bernasconi,Bernasconi,-63.742401,-37.904591
Argentina/Berrotarán,Berrotarán,-64.388672,-32.451
Argentina/Bolívar,Bolívar,-61.083328,-36.333328
Argentina/Bonpland,Bonpland,-57.431461,-29.823971
Argentina/Bovril,Bovril,-59.445122,-31.343109
Argentina/Brinkmann,Brinkmann,-62.037418,-30.8659
Argentina/Buchardo,Buchardo,-63.509201,-34.72263
Argentina/Buena Esperanza,Buena Esperanza,-65.253799,-34.75647
Argentina/Buenos Aires,Buenos Aires,-58.533333,-34.816666
Argentina/Burruyacú,Burruyacú,-64.742058,-26.49918
Argentina/Buta Ranquil,Buta Ranquil,-69.877129,-37.052219
Argentina/Cachí,Cachí,-66.165192,-25.120331
Argentina/Cafayate,Cafayate,-65.976143,-26.07295
Argentina/Caimancito,Caimancito,-64.593697,-23.7407
Argentina/Calchaquí,Calchaquí,-60.286961,-29.887671
Argentina/Caleta Olivia,Caleta Olivia,-67.528137,-46.439289
Argentina/Caleufú,Caleufú,-64.557777,-35.595589
Argentina/Calilegua,Calilegua,-64.77002,-23.77368
Argentina/Calingasta,Calingasta,-69.407829,-31.330839
Argentina/Camarones,Camarones,-65.709938,-44.797089
Argentina/Camilo Aldao,Camilo Aldao,-62.094528,-33.127449
Argentina/Campana,Campana,-58.959141,-34.168739
Argentina/Campo Gallo,Campo Gallo,-62.849998,-26.58333
Argentina/Campo Grande,Campo Grande,-54.979771,-27.207701
Argentina/Campo Largo,Campo Largo,-60.842152,-26.80077
Argentina/Campo Quijano,Campo Quijano,-65.636559,-24.909821
Argentina/Campo Ramón,Campo Ramón,-55.019009,-27.461081
Argentina/Campo Viera,Campo Viera,-55.033329,-27.383329
Argentina/Canals,Canals,-62.889271,-33.565418
Argentina/Candelaria,Candelaria,-55.745361,-27.459499
Argentina/Capayán,Capayán,-66.05024,-28.761049
Argentina/Capilla del Monte,Capilla del Monte,-64.525146,-30.86088
Argentina/Capioví,Capioví,-55.060841,-26.929979
Argentina/Capitán Bermúdez,Capitán Bermúdez,-60.718521,-32.82262
Argentina/Capitán Solari,Capitán Solari,-59.56089,-26.802151
Argentina/Carcarañá,Carcarañá,-61.153309,-32.856789
Argentina/Cariló,Cariló,-56.891331,-37.165241
Argentina/Carnerillo,Carnerillo,-64.021751,-32.9137
Argentina/Carrilobo,Carrilobo,-63.117161,-31.872959
Argentina/Caseros,Caseros,-58.478722,-32.463249
Argentina/Castelli,Castelli,-60.619469,-25.946791
Argentina/Castro Barros,Castro Barros,-65.726959,-30.579519
Argentina/Catamarca,Catamarca,-65.76667,-28.433332
Argentina/Cataratas del Iguazu,Cataratas del Iguazu,-54.450001,-25.66667
Argentina/Catriel,Catriel,-67.795601,-37.87907
Argentina/Catriló,Catriló,-63.42168,-36.405979
Argentina/Caucete,Caucete,-68.281052,-31.651791
Argentina/Cavanagh,Cavanagh,-62.338879,-33.476059
Argentina/Cañada de Gómez,Cañada de Gómez,-61.394932,-32.81636
Argentina/Cañada de Luque,Cañada de Luque,-63.723759,-30.73341
Argentina/Ceibas,Ceibas,-58.75,-33.433331
Argentina/Centenario,Centenario,-68.131798,-38.829552
Argentina/Ceres,Ceres,-61.950001,-29.883333
Argentina/Cerro Azul,Cerro Azul,-55.496201,-27.633101
Argentina/Cerro Catedral,Cerro Catedral,-71.500267,-41.213928
Argentina/Cerro Corá,Cerro Corá,-55.608959,-27.5131
Argentina/Cervantes,Cervantes,-67.383331,-39.049999
Argentina/Chacabuco,Chacabuco,-60.473888,-34.64167
Argentina/Chajarí,Chajarí,-57.979622,-30.750481
Argentina/Chamical,Chamical,-66.313988,-30.36002
Argentina/Charadai,Charadai,-59.900002,-27.633329
Argentina/Charata,Charata,-61.18795,-27.21438
Argentina/Charras,Charras,-64.047188,-33.023998
Argentina/Chavarría,Chavarría,-58.572769,-28.95488
Argentina/Chazón,Chazón,-63.276569,-33.07872
Argentina/Chepes,Chepes,-66.599998,-31.33
Argentina/Chicoana,Chicoana,-65.533096,-25.10088
Argentina/Chilecito,Chilecito,-67.497398,-29.161949
Argentina/Chimbas,Chimbas,-68.533333,-31.48333
Argentina/Chimpay,Chimpay,-66.142357,-39.164822
Argentina/Chivilcoy,Chivilcoy,-60.01667,-34.89566
Argentina/Choele Choel,Choele Choel,-65.650002,-39.283333
Argentina/Chorotis,Chorotis,-61.399818,-27.915779
Argentina/Chos Malal,Chos Malal,-70.270851,-37.37809
Argentina/Ciervo Petiso,Ciervo Petiso,-59.630939,-26.58041
Argentina/Cinco Saltos,Cinco Saltos,-68.062927,-38.822239
Argentina/Cintra,Cintra,-62.652142,-32.306728
Argentina/Cipolletti,Cipolletti,-68.01667,-38.933334
Argentina/Clodomira,Clodomira,-64.131081,-27.5744
Argentina/Clorinda,Clorinda,-57.71851,-25.284809
Argentina/Colegiales,Colegiales,-58.449242,-34.57365
Argentina/Colonia Aurora,Colonia Aurora,-54.524979,-27.474279
Argentina/Colonia Barón,Colonia Barón,-63.854038,-36.15152
Argentina/Colonia Benítez,Colonia Benítez,-58.94622,-27.33099
Argentina/Colonia Carlos Pellegrini,Colonia Carlos Pellegrini,-57.174339,-28.535561
Argentina/Colonia Dora,Colonia Dora,-62.950001,-28.6
Argentina/Colonia Elisa,Colonia Elisa,-59.518608,-26.93041
Argentina/Colonia Elía,Colonia Elía,-58.32148,-32.666248
Argentina/Colonia La Tordilla,Colonia La Tordilla,-63.06134,-31.237459
Argentina/Colonia San Bartolomé,Colonia San Bartolomé,-62.724361,-31.5278
Argentina/Colonia Wanda,Colonia Wanda,-54.428059,-25.974079
Argentina/Colonias Unidas,Colonias Unidas,-59.631538,-26.69825
Argentina/Comallo,Comallo,-70.267838,-41.02993
Argentina/Comandante Fontana,Comandante Fontana,-59.682121,-25.33453
Argentina/Comandante Luis Piedra Buena,Comandante Luis Piedra Buena,-68.933334,-50.0
Argentina/Comodoro Rivadavia,Comodoro Rivadavia,-67.5,-45.783333
Argentina/Concarán,Concarán,-65.242699,-32.560089
Argentina/Concepcion del Uruguay,Concepcion del Uruguay,-58.266666,-32.466667
Argentina/Concepción,Concepción,-57.887772,-28.39175
Argentina/Concepción de la Sierra,Concepción de la Sierra,-55.520309,-27.98311
Argentina/Concepción del Bermejo,Concepción del Bermejo,-60.946171,-26.59926
Argentina/Concordia,Concordia,-58.016666,-31.299999
Argentina/Conscripto Bernardi,Conscripto Bernardi,-59.084351,-31.04837
Argentina/Contraalmirante Cordero,Contraalmirante Cordero,-68.15284,-38.724232
Argentina/Cordoba,Cordoba,-64.216667,-31.316668
Argentina/Coronda,Coronda,-60.919819,-31.97263
Argentina/Coronel Baigorria,Coronel Baigorria,-64.361069,-32.847698
Argentina/Coronel Belisle,Coronel Belisle,-65.98333,-39.183331
Argentina/Coronel Dorrego,Coronel Dorrego,-61.287319,-38.71867
Argentina/Coronel Du Graty,Coronel Du Graty,-60.914619,-27.68038
Argentina/Coronel Moldes,Coronel Moldes,-64.597107,-33.6227
Argentina/Coronel Suarez,Coronel Suarez,-61.950001,-37.5
Argentina/Corral de Bustos,Corral de Bustos,-62.184631,-33.282051
Argentina/Corralito,Corralito,-64.192162,-32.02462
Argentina/Corrientes,Corrientes,-58.766666,-27.450001
Argentina/Corzuela,Corzuela,-60.96928,-26.953739
Argentina/Cosquín,Cosquín,-64.46563,-31.245081
Argentina/Costa Sacate,Costa Sacate,-63.75935,-31.647699
Argentina/Coté-Lai,Coté-Lai,-59.599998,-27.5
Argentina/Crespo,Crespo,-60.30658,-32.028728
Argentina/Cristo Redentor,Cristo Redentor,-32.826309,-32.826309
Argentina/Cruz Alta,Cruz Alta,-61.807461,-33.008869
Argentina/Cruz de los Milagros,Cruz de los Milagros,-59.004761,-28.83646
Argentina/Cruz del Eje,Cruz del Eje,-64.803871,-30.72644
Argentina/Cuesta Blanca,Cuesta Blanca,-64.571503,-31.48658
Argentina/Curuzú Cuatiá,Curuzú Cuatiá,-58.0546,-29.79171
Argentina/Cutral-Có,Cutral-Có,-69.230522,-38.934238
Argentina/Córdoba - Observatorio,Córdoba - Observatorio,-64.181053,-31.4135
Argentina/Dalmacio Vélez Sársfield,Dalmacio Vélez Sársfield,-63.580379,-32.610722
Argentina/Darwin,Darwin,-65.76667,-39.200001
Argentina/Del Campillo,Del Campillo,-64.495041,-34.376591
Argentina/Despeñaderos,Despeñaderos,-64.289886,-31.816259
Argentina/Devoto,Devoto,-62.306339,-31.40431
Argentina/Diamante,Diamante,-60.638359,-32.06641
Argentina/Doblas,Doblas,-64.011833,-37.14967
Argentina/Dolavón,Dolavón,-65.699997,-43.299999
Argentina/Dolores,Dolores,-57.299999,-36.266666
Argentina/Domínguez,Domínguez,-58.961971,-31.987101
Argentina/Don Torcuato,Don Torcuato,-58.639149,-34.496738
Argentina/Dos Arroyos,Dos Arroyos,-55.233639,-27.70784
Argentina/Dos de Mayo,Dos de Mayo,-54.686691,-27.02277
Argentina/Eduardo Castex,Eduardo Castex,-64.294479,-35.915009
Argentina/El Aguilar,El Aguilar,-65.692131,-23.225821
Argentina/El Alcázar,El Alcázar,-54.815231,-26.71459
Argentina/El Arañado,El Arañado,-62.893219,-31.741199
Argentina/El Bolsón,El Bolsón,-71.51667,-41.966671
Argentina/El Calafate,El Calafate,-72.26667,-50.333332
Argentina/El Carril,El Carril,-65.491737,-25.0741
Argentina/El Chaltén,El Chaltén,-72.886047,-49.329899
Argentina/El Colorado,El Colorado,-59.37291,-26.308081
Argentina/El Galpón,El Galpón,-64.652588,-25.38069
Argentina/El Hoyo,El Hoyo,-63.231972,-27.028721
Argentina/El Huecú,El Huecú,-70.580063,-37.645222
Argentina/El Maitén,El Maitén,-71.166931,-42.04924
Argentina/El Palomar,El Palomar,-58.61528,-34.541672
Argentina/El Quebrachal,El Quebrachal,-64.066673,-25.283331
Argentina/El Rodeo,El Rodeo,-65.874199,-28.215179
Argentina/El Soberbio,El Soberbio,-54.198769,-27.29846
Argentina/El Trébol,El Trébol,-61.701401,-32.200802
Argentina/El Tío,El Tío,-62.82938,-31.38357
Argentina/Elena,Elena,-64.394814,-32.572048
Argentina/Embajador Martini,Embajador Martini,-64.280922,-35.38633
Argentina/Embalse,Embalse,-64.418091,-32.18
Argentina/Embarcación,Embarcación,-64.096046,-23.208981
Argentina/Esperanza,Esperanza,-60.931728,-31.448799
Argentina/Esquel,Esquel,-71.150002,-42.933334
Argentina/Esquina,Esquina,-59.527191,-30.014441
Argentina/Estanislao del Campo,Estanislao del Campo,-60.092178,-25.05504
Argentina/Etruria,Etruria,-63.246601,-32.940079
Argentina/Ezeiza,Ezeiza,-58.52869,-34.84787
Argentina/Famaillá,Famaillá,-65.40329,-27.054131
Argentina/Federación,Federación,-57.89962,-31.00621
Argentina/Federal,Federal,-58.78326,-30.954651
Argentina/Felipe Yofré,Felipe Yofré,-58.337719,-29.102261
Argentina/Fiambalá,Fiambalá,-67.614899,-27.68705
Argentina/Firmat,Firmat,-61.4832,-33.45937
Argentina/Florentino Ameghino,Florentino Ameghino,-55.133331,-27.566669
Argentina/Fontana,Fontana,-59.023918,-27.418131
Argentina/Formosa,Formosa,-58.233334,-26.233334
Argentina/Fraile Pintado,Fraile Pintado,-64.799431,-23.94079
Argentina/Fray Luis A. Beltrán,Fray Luis A. Beltrán,-60.728191,-32.791222
Argentina/Fray Luis Beltrán,Fray Luis Beltrán,-65.76667,-39.316669
Argentina/Funes,Funes,-60.809952,-32.91568
Argentina/Gaimán,Gaimán,-65.492897,-43.2897
Argentina/Gancedo,Gancedo,-61.675709,-27.490379
Argentina/Garruchos,Garruchos,-55.639469,-28.185141
Argentina/Garuhapé,Garuhapé,-54.956638,-26.81768
Argentina/Garupá,Garupá,-55.829208,-27.48171
Argentina/General Alvear,General Alvear,-55.166672,-27.433331
Argentina/General Baldissera,General Baldissera,-62.306301,-33.122459
Argentina/General Cabrera,General Cabrera,-63.872429,-32.813129
Argentina/General Campos,General Campos,-58.4049,-31.523109
Argentina/General Enrique Godoy,General Enrique Godoy,-67.150002,-39.083328
Argentina/General Enrique Mosconi,General Enrique Mosconi,-62.299999,-23.216669
Argentina/General Fernández Oro,General Fernández Oro,-67.924889,-38.952969
Argentina/General Galarza,General Galarza,-59.396149,-32.720341
Argentina/General José de San Martín,General José de San Martín,-59.341579,-26.53743
Argentina/General Levalle,General Levalle,-63.924129,-34.014721
Argentina/General Manuel J. Campos,General Manuel J. Campos,-63.585369,-37.460251
Argentina/General Pico,General Pico,-63.756821,-35.65662
Argentina/General Pinedo,General Pinedo,-61.283329,-27.316669
Argentina/General Ramírez,General Ramírez,-60.20079,-32.17601
Argentina/General Roca,General Roca,-67.583328,-39.033329
Argentina/General San Martín,General San Martín,-63.604488,-37.979038
Argentina/General Vedia,General Vedia,-58.6604,-26.933821
Argentina/General Villegas,General Villegas,-63.016666,-35.016666
Argentina/Gilbert,Gilbert,-58.931351,-32.534988
Argentina/Gobernador Gregores,Gobernador Gregores,-70.169998,-48.779999
Argentina/Gobernador Gálvez,Gobernador Gálvez,-60.64045,-33.030159
Argentina/Gobernador Ingeniero Valentín Virasoro,Gobernador Ingeniero Valentín Virasoro,-56.033329,-28.049999
Argentina/Gobernador Juan E. Martínez,Gobernador Juan E. Martínez,-58.932919,-28.917049
Argentina/Gobernador Mansilla,Gobernador Mansilla,-59.354801,-32.544529
Argentina/Gobernador Roca,Gobernador Roca,-55.464329,-27.186359
Argentina/Gobernador Sola,Gobernador Sola,-59.183334,-32.316666
Argentina/Goya,Goya,-59.266666,-29.15
Argentina/Granadero Baigorria,Granadero Baigorria,-60.717541,-32.856831
Argentina/Graneros,Graneros,-65.438301,-27.64934
Argentina/Gualeguay,Gualeguay,-59.309662,-33.14156
Argentina/Gualeguaychú,Gualeguaychú,-58.51722,-33.00938
Argentina/Guaraní,Guaraní,-55.166672,-27.51667
Argentina/Guatimozín,Guatimozín,-62.438438,-33.461498
Argentina/Guatraché,Guatraché,-63.53022,-37.667759
Argentina/Guaviraví,Guaviraví,-56.828678,-29.36816
Argentina/Gálvez,Gálvez,-61.221031,-32.02927
Argentina/Hasenkamp,Hasenkamp,-59.835449,-31.51226
Argentina/Herlitzka,Herlitzka,-58.255569,-27.565161
Argentina/Hermoso Campo,Hermoso Campo,-61.34441,-27.60816
Argentina/Hernando,Hernando,-63.73333,-32.426571
Argentina/Hernández,Hernández,-60.021599,-32.337299
Argentina/Herradura,Herradura,-58.311981,-26.487049
Argentina/Herrera,Herrera,-58.624619,-32.435162
Argentina/Hersilia,Hersilia,-61.840801,-30.004471
Argentina/Hoyo de Epuyén,Hoyo de Epuyén,-71.50811,-42.071892
Argentina/Hualfín,Hualfín,-66.831306,-27.22896
Argentina/Huanchillas,Huanchillas,-63.637009,-33.666519
Argentina/Huerta Grande,Huerta Grande,-64.490631,-31.075239
Argentina/Huillapima,Huillapima,-65.978699,-28.72533
Argentina/Huinca Renancó,Huinca Renancó,-64.375801,-34.840382
Argentina/Humahuaca,Humahuaca,-65.350479,-23.205441
Argentina/Ibarreta,Ibarreta,-59.858509,-25.21438
Argentina/Icaño,Icaño,-65.328171,-28.91934
Argentina/Idiazábal,Idiazábal,-63.03252,-32.81411
Argentina/Iguazu,Iguazu,-54.466667,-25.733334
Argentina/Iguazu Falls,Iguazu Falls,-54.443691,-25.68988
Argentina/Ingeniero Guillermo N. Juárez,Ingeniero Guillermo N. Juárez,-61.849998,-23.9
Argentina/Ingeniero Jacobacci,Ingeniero Jacobacci,-69.544792,-41.34269
Argentina/Ingeniero Luiggi,Ingeniero Luiggi,-64.465187,-35.385849
Argentina/Ingeniero Luis A. Huergo,Ingeniero Luis A. Huergo,-67.23333,-39.083328
Argentina/Ingenio La Esperanza,Ingenio La Esperanza,-64.838959,-24.22554
Argentina/Inriville,Inriville,-62.230282,-32.944241
Argentina/Intendente Alvear,Intendente Alvear,-63.592049,-35.233829
Argentina/Isla Verde,Isla Verde,-62.402969,-33.241039
Argentina/Italó,Italó,-63.78199,-34.79237
Argentina/Itatí,Itatí,-58.244579,-27.27043
Argentina/Itá Ibaté,Itá Ibaté,-57.337582,-27.42573
Argentina/Jacinto Arauz,Jacinto Arauz,-63.43169,-38.08606
Argentina/James Craik,James Craik,-63.466881,-32.161201
Argentina/Jardín América,Jardín América,-55.226978,-27.043461
Argentina/Jesús María,Jesús María,-64.094238,-30.981529
Argentina/Joaquín V. González,Joaquín V. González,-64.183327,-25.08333
Argentina/José de San Martín,José de San Martín,-70.469673,-44.05032
Argentina/Juan Pujol,Juan Pujol,-57.856121,-30.41873
Argentina/Jujuy,Jujuy,-65.26667,-24.233334
Argentina/Junin,Junin,-60.950001,-34.549999
Argentina/Junín de los Andes,Junín de los Andes,-71.069359,-39.950432
Argentina/Justiniano Posse,Justiniano Posse,-62.677879,-32.884109
Argentina/Justo Daract,Justo Daract,-65.18277,-33.859402
Argentina/La Calera,La Calera,-64.335289,-31.343769
Argentina/La Carlota,La Carlota,-63.297691,-33.41993
Argentina/La Cesira,La Cesira,-62.972382,-33.951149
Argentina/La Clotilde,La Clotilde,-60.666672,-27.133329
Argentina/La Cocha,La Cocha,-65.570351,-27.77729
Argentina/La Criolla,La Criolla,-58.105579,-31.269039
Argentina/La Cruz,La Cruz,-56.643261,-29.174431
Argentina/La Cumbre,La Cumbre,-64.491386,-30.98201
Argentina/La Cumbrecita,La Cumbrecita,-64.773308,-31.898821
Argentina/La Eduvigis,La Eduvigis,-59.06842,-26.85545
Argentina/La Escondida,La Escondida,-59.447842,-27.107241
Argentina/La Falda,La Falda,-64.489868,-31.088409
Argentina/La Francia,La Francia,-62.633961,-31.40675
Argentina/La Granja,La Granja,-64.268692,-31.00919
Argentina/La Humada,La Humada,-68.013557,-36.349049
Argentina/La Leonesa,La Leonesa,-58.703468,-27.037861
Argentina/La Maruja,La Maruja,-64.939972,-35.673599
Argentina/La Mendieta,La Mendieta,-64.963768,-24.311871
Argentina/La Para,La Para,-63.001068,-30.894159
Argentina/La Paz,La Paz,-59.64566,-30.74485
Argentina/La Plata,La Plata,-57.900002,-34.966667
Argentina/La Playosa,La Playosa,-63.03088,-32.100021
Argentina/La Puerta de San José,La Puerta de San José,-67.01667,-27.549999
Argentina/La Punta,La Punta,-66.312698,-33.183681
Argentina/La Quiaca,La Quiaca,-65.599998,-22.1
Argentina/La Rioja,La Rioja,-66.816666,-29.383333
Argentina/La Tigra,La Tigra,-60.587189,-27.109961
Argentina/La Toma,La Toma,-65.623848,-33.052582
Argentina/La Verde,La Verde,-59.37352,-27.126341
Argentina/Laborde,Laborde,-62.856609,-33.153191
Argentina/Laboulaye,Laboulaye,-63.39119,-34.126621
Argentina/Lago Puelo,Lago Puelo,-71.614052,-42.080952
Argentina/Laguna Alsina,Laguna Alsina,-62.216667,-36.900002
Argentina/Laguna Larga,Laguna Larga,-63.801041,-31.77652
Argentina/Laguna Limpia,Laguna Limpia,-59.680828,-26.495649
Argentina/Laguna Naick-Neck,Laguna Naick-Neck,-58.09383,-25.24769
Argentina/Laguna Paiva,Laguna Paiva,-60.658939,-31.303909
Argentina/Laguna Yema,Laguna Yema,-61.244659,-24.25391
Argentina/Lamarque,Lamarque,-65.70208,-39.423038
Argentina/Lapachito,Lapachito,-59.38604,-27.159981
Argentina/Larroque,Larroque,-59.001251,-33.03595
Argentina/Las Acequias,Las Acequias,-63.976101,-33.281551
Argentina/Las Breñas,Las Breñas,-61.081612,-27.089661
Argentina/Las Flores,Las Flores,-59.099998,-36.07
Argentina/Las Garcitas,Las Garcitas,-59.799999,-26.58333
Argentina/Las Heras,Las Heras,-68.949997,-46.549999
Argentina/Las Junturas,Las Junturas,-63.450161,-31.831249
Argentina/Las Lajas,Las Lajas,-70.367439,-38.52322
Argentina/Las Lajitas,Las Lajitas,-64.25,-24.683331
Argentina/Las Leñas,Las Leñas,-70.082474,-35.146858
Argentina/Las Lomitas,Las Lomitas,-60.593029,-24.709551
Argentina/Las Ovejas,Las Ovejas,-70.749908,-36.988811
Argentina/Las Parejas,Las Parejas,-61.516369,-32.68478
Argentina/Las Perdices,Las Perdices,-63.706341,-32.697941
Argentina/Las Rosas,Las Rosas,-61.58041,-32.476608
Argentina/Las Toscas,Las Toscas,-59.25795,-28.3529
Argentina/Las Varas,Las Varas,-62.61655,-31.802601
Argentina/Las Varillas,Las Varillas,-62.71946,-31.87208
Argentina/Leones,Leones,-62.29678,-32.661739
Argentina/Libertad,Libertad,-57.820202,-30.042999
Argentina/Libertador General San Martín,Libertador General San Martín,-64.787567,-23.80644
Argentina/Lincoln,Lincoln,-61.530201,-34.866489
Argentina/Llao Llao,Llao Llao,-71.536621,-41.053532
Argentina/Lomas de Vallejos,Lomas de Vallejos,-57.918499,-27.73501
Argentina/Loncopué,Loncopué,-70.616089,-38.072842
Argentina/Londres,Londres,-67.133492,-27.71439
Argentina/Lonquimay,Lonquimay,-63.62429,-36.465462
Argentina/Loreto,Loreto,-57.275311,-27.768339
Argentina/Los Altos,Los Altos,-65.499458,-28.04845
Argentina/Los Antiguos,Los Antiguos,-71.630859,-46.549721
Argentina/Los Charrúas,Los Charrúas,-58.18774,-31.17548
Argentina/Los Conquistadores,Los Conquistadores,-58.467731,-30.590799
Argentina/Los Cóndores,Los Cóndores,-64.277519,-32.319839
Argentina/Los Frentones,Los Frentones,-61.413681,-26.4077
Argentina/Los Helechos,Los Helechos,-55.076832,-27.5576
Argentina/Los Juríes,Los Juríes,-62.10862,-28.465389
Argentina/Los Menucos,Los Menucos,-68.087181,-40.844021
Argentina/Los Surgentes,Los Surgentes,-62.021912,-32.984539
Argentina/Los Telares,Los Telares,-63.448891,-28.984791
Argentina/Los Varela,Los Varela,-65.865501,-27.954821
Argentina/Lucas González,Lucas González,-59.530128,-32.3843
Argentina/Luján,Luján,-59.105,-34.570278
Argentina/Machagai,Machagai,-60.049561,-26.92614
Argentina/Maciá,Maciá,-59.399471,-32.172199
Argentina/Maimará,Maimará,-65.407967,-23.62392
Argentina/Mainque,Mainque,-67.300003,-39.066669
Argentina/Makallé,Makallé,-59.286961,-27.206869
Argentina/Malabrigo,Malabrigo,-59.96957,-29.346359
Argentina/Malagueño,Malagueño,-64.358398,-31.46467
Argentina/Malargue,Malargue,-69.583336,-35.466667
Argentina/Malvinas Argentinas,Malvinas Argentinas,-64.066673,-31.383329
Argentina/Maquinchao,Maquinchao,-68.730003,-41.25
Argentina/Mar Del Plata,Mar Del Plata,-57.583332,-37.933334
Argentina/Mar de las Pampas,Mar de las Pampas,-57.02179,-37.325119
Argentina/Marcos Juarez,Marcos Juarez,-62.150002,-32.700001
Argentina/Margarita Belén,Margarita Belén,-58.972191,-27.2616
Argentina/Mariano I. Loza,Mariano I. Loza,-58.194359,-29.37668
Argentina/Mariano Moreno,Mariano Moreno,-70.023666,-38.75029
Argentina/Marull,Marull,-62.82576,-30.994711
Argentina/Mattaldi,Mattaldi,-64.172546,-34.481941
Argentina/Mburucuyá,Mburucuyá,-58.224491,-28.045389
Argentina/Mendiolaza,Mendiolaza,-64.300873,-31.26738
Argentina/Mendoza,Mendoza,-68.783333,-32.833332
Argentina/Mendoza - Observatorio,Mendoza - Observatorio,-68.827171,-32.890839
Argentina/Mercedes,Mercedes,-59.430679,-34.651459
Argentina/Merlo,Merlo,-65.013962,-32.34288
Argentina/Miguel Riglos,Miguel Riglos,-63.688419,-36.853981
Argentina/Mina Clavero,Mina Clavero,-65.006187,-31.721001
Argentina/Miramar,Miramar,-62.678139,-30.918579
Argentina/Mocoretá,Mocoretá,-57.96344,-30.61891
Argentina/Mojón Grande,Mojón Grande,-55.156311,-27.711639
Argentina/Monte Buey,Monte Buey,-62.45668,-32.91642
Argentina/Monte Caseros,Monte Caseros,-57.633335,-30.266666
Argentina/Monte Cristo,Monte Cristo,-63.94437,-31.343121
Argentina/Monte Dinero,Monte Dinero,-68.349998,-52.349998
Argentina/Monte Maíz,Monte Maíz,-62.600849,-33.20462
Argentina/Montecarlo,Montecarlo,-54.757,-26.5662
Argentina/Morrison,Morrison,-62.834549,-32.594799
Argentina/Morteros,Morteros,-61.998619,-30.711639
Argentina/Morón,Morón,-58.619751,-34.653439
Argentina/Mutquín,Mutquín,-66.142532,-28.321039
Argentina/Mártires,Mártires,-55.383331,-27.433331
Argentina/Napenay,Napenay,-60.616669,-26.73333
Argentina/Naschel,Naschel,-65.375351,-32.916561
Argentina/Necochea,Necochea,-58.833332,-38.483334
Argentina/Neuquen,Neuquen,-68.133331,-38.950001
Argentina/Nicolas Levalle,Nicolas Levalle,-62.083332,-38.883335
Argentina/Noetinger,Noetinger,-62.31126,-32.365971
Argentina/Nuestra Señora del Rosario de Caa Catí,Nuestra Señora del Rosario de Caa Catí,-57.620731,-27.750719
Argentina/Nueve De Julio,Nueve De Julio,-60.883129,-35.44437
Argentina/Nueve de Julio,Nueve de Julio,-58.8265,-28.840509
Argentina/Oberá,Oberá,-55.119942,-27.487061
Argentina/Obispo Trejo,Obispo Trejo,-63.413479,-30.781281
Argentina/Olavarría,Olavarría,-60.32254,-36.892719
Argentina/Oliva,Oliva,-63.569778,-32.04158
Argentina/Oncativo,Oncativo,-63.682011,-31.91353
Argentina/Ordóñez,Ordóñez,-62.86552,-32.840569
Argentina/Oro Verde,Oro Verde,-60.51749,-31.825081
Argentina/Palma Sola,Palma Sola,-64.298721,-23.96336
Argentina/Palmar Grande,Palmar Grande,-57.90057,-27.94195
Argentina/Palo Santo,Palo Santo,-59.337811,-25.56332
Argentina/Palpalá,Palpalá,-65.211632,-24.256479
Argentina/Pampa Almirón,Pampa Almirón,-59.133331,-26.700001
Argentina/Pampa de los Guanacos,Pampa de los Guanacos,-61.849998,-26.23333
Argentina/Pampa del Indio,Pampa del Indio,-59.91898,-26.06468
Argentina/Pampa del Infierno,Pampa del Infierno,-61.174358,-26.505171
Argentina/Panambí,Panambí,-54.915138,-27.7237
Argentina/Parana,Parana,-60.483334,-31.783333
Argentina/Parera,Parera,-64.500893,-35.146
Argentina/Pascanas,Pascanas,-63.04084,-33.1255
Argentina/Pasco,Pasco,-63.342319,-32.74733
Argentina/Paso Del Los Indios,Paso Del Los Indios,-69.046028,-43.799999
Argentina/Paso de la Patria,Paso de la Patria,-58.571972,-27.316759
Argentina/Paso de los Libres,Paso de los Libres,-57.150002,-29.683332
Argentina/Pedro R. Fernández,Pedro R. Fernández,-58.65583,-28.750971
Argentina/Pehuajó,Pehuajó,-61.896801,-35.810768
Argentina/Pergamino,Pergamino,-60.57357,-33.88995
Argentina/Perito Moreno,Perito Moreno,-70.929749,-46.589939
Argentina/Perugorría,Perugorría,-58.610592,-29.34132
Argentina/Picada Gobernador López,Picada Gobernador López,-55.24585,-27.670691
Argentina/Pico Truncado,Pico Truncado,-67.957314,-46.794899
Argentina/Picún Leufú,Picún Leufú,-69.279663,-39.52351
Argentina/Piedra del Águila,Piedra del Águila,-70.074097,-40.048111
Argentina/Piedras Blancas,Piedras Blancas,-59.959572,-31.18623
Argentina/Pigue,Pigue,-62.380001,-37.599998
Argentina/Pilar,Pilar,-63.880001,-31.67
Argentina/Pilcaniyeu,Pilcaniyeu,-70.729141,-41.118809
Argentina/Pinamar,Pinamar,-56.861401,-37.107941
Argentina/Piquillín,Piquillín,-63.757881,-31.30158
Argentina/Pirané,Pirané,-59.108791,-25.732389
Argentina/Plaza Huincul,Plaza Huincul,-69.199997,-38.900002
Argentina/Plottier,Plottier,-68.23333,-38.966671
Argentina/Pocito,Pocito,-68.583328,-31.683331
Argentina/Pomán,Pomán,-66.22052,-28.39455
Argentina/Pontevedra,Pontevedra,-58.686958,-34.749741
Argentina/Porteña,Porteña,-62.066502,-31.01391
Argentina/Posadas,Posadas,-55.966667,-27.366667
Argentina/Pozo del Molle,Pozo del Molle,-62.919842,-32.0186
Argentina/Pozo del Tigre,Pozo del Tigre,-60.323589,-24.89682
Argentina/Presidencia Roca,Presidencia Roca,-59.595409,-26.1409
Argentina/Presidencia Roque Saenz Pena,Presidencia Roque Saenz Pena,-60.450001,-26.816668
Argentina/Presidencia de la Plaza,Presidencia de la Plaza,-59.84243,-27.001471
Argentina/Primero de Mayo,Primero de Mayo,-68.416672,-32.26667
Argentina/Pronunciamiento,Pronunciamiento,-58.432869,-32.346169
Argentina/Pueblo Libertador,Pueblo Libertador,-59.389809,-30.220869
Argentina/Puente del Inca,Puente del Inca,-69.913094,-32.823898
Argentina/Puerta de Corral Quemado,Puerta de Corral Quemado,-66.936348,-27.23
Argentina/Puerto Bermejo,Puerto Bermejo,-58.505379,-26.93173
Argentina/Puerto Deseado,Puerto Deseado,-65.916664,-47.733334
Argentina/Puerto Eldorado,Puerto Eldorado,-54.69463,-26.408421
Argentina/Puerto Esperanza,Puerto Esperanza,-54.673061,-26.015169
Argentina/Puerto Ibicuy,Puerto Ibicuy,-59.183331,-33.73333
Argentina/Puerto Leoni,Puerto Leoni,-55.165699,-26.96069
Argentina/Puerto Libertad,Puerto Libertad,-54.620892,-25.91641
Argentina/Puerto Madryn,Puerto Madryn,-65.01667,-42.783333
Argentina/Puerto Piray,Puerto Piray,-54.71476,-26.467791
Argentina/Puerto Rico,Puerto Rico,-55.024021,-26.79598
Argentina/Puerto San Julian,Puerto San Julian,-67.783333,-49.316666
Argentina/Puerto Tirol,Puerto Tirol,-59.082062,-27.372181
Argentina/Puerto Vilelas,Puerto Vilelas,-58.93906,-27.514139
Argentina/Punta Alta,Punta Alta,-62.073589,-38.875881
Argentina/Punta Indio,Punta Indio,-57.299999,-35.349998
Argentina/Punta Lara,Punta Lara,-57.983334,-34.833332
Argentina/Purmamarca,Purmamarca,-65.501183,-23.747391
Argentina/Pérez,Pérez,-60.76791,-32.998348
Argentina/Quemú Quemú,Quemú Quemú,-63.564281,-36.05463
Argentina/Quilino,Quilino,-64.500633,-30.21397
Argentina/Quilmes,Quilmes,-58.252651,-34.724178
Argentina/Quimilí,Quimilí,-62.416672,-27.633329
Argentina/Quitilipi,Quitilipi,-60.216831,-26.869129
Argentina/Rada Tilly,Rada Tilly,-67.533333,-45.933331
Argentina/Rafaela,Rafaela,-61.486698,-31.25033
Argentina/Ramada Paso,Ramada Paso,-58.311218,-27.3734
Argentina/Rancul,Rancul,-64.681068,-35.068619
Argentina/Rawson,Rawson,-65.10228,-43.300159
Argentina/Realicó,Realicó,-64.244698,-35.036579
Argentina/Reconquista,Reconquista,-59.666668,-29.183332
Argentina/Recreo,Recreo,-60.73299,-31.490761
Argentina/Resistencia,Resistencia,-59.049999,-27.450001
Argentina/Retiro,Retiro,-58.383331,-34.583328
Argentina/Riacho Eh-Eh,Riacho Eh-Eh,-58.2775,-25.362089
Argentina/Riachuelo,Riachuelo,-58.739449,-27.577539
Argentina/Rio Cuarto,Rio Cuarto,-64.23333,-33.116665
Argentina/Rio Gallegos,Rio Gallegos,-69.283333,-51.616665
Argentina/Rio Grande,Rio Grande,-67.75,-53.799999
Argentina/Rivadavia,Rivadavia,-62.900002,-24.166666
Argentina/Roldán,Roldán,-60.906811,-32.89846
Argentina/Rosario,Rosario,-60.783333,-32.916668
Argentina/Rosario del Tala,Rosario del Tala,-59.145451,-32.30286
Argentina/Rufino,Rufino,-62.71262,-34.268269
Argentina/Ruiz de Montoya,Ruiz de Montoya,-55.049999,-26.98333
Argentina/Río Ceballos,Río Ceballos,-64.322411,-31.16486
Argentina/Río Colorado,Río Colorado,-64.092949,-38.99398
Argentina/Río Cuarto,Río Cuarto,-64.349922,-33.130669
Argentina/Río Mayo,Río Mayo,-70.257973,-45.68573
Argentina/Río Pico,Río Pico,-71.368469,-44.179039
Argentina/Río Segundo,Río Segundo,-63.909901,-31.652599
Argentina/Río Tercero,Río Tercero,-64.114059,-32.173012
Argentina/Río Turbio,Río Turbio,-72.336731,-51.53587
Argentina/Sacanta,Sacanta,-63.045052,-31.663
Argentina/Saladas,Saladas,-58.625912,-28.253839
Argentina/Saldán,Saldán,-64.306999,-31.30262
Argentina/Salsacate,Salsacate,-65.085289,-31.31649
Argentina/Salsipuedes,Salsipuedes,-64.295891,-31.137239
Argentina/Salta,Salta,-65.48333,-24.85
Argentina/Sampacho,Sampacho,-64.722107,-33.3839
Argentina/Samuhú,Samuhú,-60.39167,-27.52116
Argentina/San Agustín,San Agustín,-64.374001,-31.97681
Argentina/San Agustín de Valle Fértil,San Agustín de Valle Fértil,-67.468208,-30.63353
Argentina/San Antonio,San Antonio,-65.712181,-28.00927
Argentina/San Antonio Oeste,San Antonio Oeste,-64.949997,-40.066666
Argentina/San Antonio de Litín,San Antonio de Litín,-62.63237,-32.213772
Argentina/San Antonio de los Cobres,San Antonio de los Cobres,-66.318771,-24.21804
Argentina/San Basilio,San Basilio,-64.314949,-33.497631
Argentina/San Benito,San Benito,-60.483334,-31.783333
Argentina/San Bernardo,San Bernardo,-60.712521,-27.287821
Argentina/San Carlos,San Carlos,-55.897301,-27.745859
Argentina/San Carlos Centro,San Carlos Centro,-61.091919,-31.72864
Argentina/San Carlos de Bariloche,San Carlos de Bariloche,-71.166664,-41.150002
Argentina/San Clemente del Tuyú,San Clemente del Tuyú,-56.723511,-36.356941
Argentina/San Cosme,San Cosme,-58.512138,-27.371229
Argentina/San Cristóbal,San Cristóbal,-61.23724,-30.31053
Argentina/San Francisco,San Francisco,-62.082661,-31.427971
Argentina/San Francisco de Laishí,San Francisco de Laishí,-58.63039,-26.24262
Argentina/San Francisco del Chañar,San Francisco del Chañar,-63.93861,-29.789909
Argentina/San Francisco del Monte de Oro,San Francisco del Monte de Oro,-66.125389,-32.598251
Argentina/San Gustavo,San Gustavo,-59.398399,-30.68961
Argentina/San Isidro,San Isidro,-58.507759,-34.471451
Argentina/San Javier,San Javier,-59.931702,-30.57781
Argentina/San Jorge,San Jorge,-61.85984,-31.896179
Argentina/San Jose de Jachal,San Jose de Jachal,-68.75,-30.25
Argentina/San José,San José,-55.7826,-27.769791
Argentina/San José de Feliciano,San José de Feliciano,-58.751671,-30.38452
Argentina/San José de la Dormida,San José de la Dormida,-63.948719,-30.354401
Argentina/San Juan,San Juan,-68.416664,-31.566668
Argentina/San Justo,San Justo,-58.435692,-32.446541
Argentina/San Lorenzo,San Lorenzo,-58.76733,-28.13306
Argentina/San Luis,San Luis,-66.349998,-33.266666
Argentina/San Luis del Palmar,San Luis del Palmar,-58.554539,-27.5079
Argentina/San Martín,San Martín,-68.46814,-33.081032
Argentina/San Martín de los Andes,San Martín de los Andes,-71.348648,-40.160381
Argentina/San Miguel,San Miguel,-57.589642,-27.99585
Argentina/San Nicolás de los Arroyos,San Nicolás de los Arroyos,-60.225231,-33.335781
Argentina/San Pedro,San Pedro,-54.108421,-26.62207
Argentina/San Rafael,San Rafael,-68.400002,-34.583332
Argentina/San Ramón de la Nueva Orán,San Ramón de la Nueva Orán,-64.325981,-23.132231
Argentina/San Salvador,San Salvador,-58.505241,-31.62487
Argentina/San Vicente,San Vicente,-54.133331,-26.616671
Argentina/Santa Ana,Santa Ana,-57.931622,-30.90004
Argentina/Santa Anita,Santa Anita,-58.786221,-32.174759
Argentina/Santa Catalina - Dique Lujan,Santa Catalina - Dique Lujan,-58.70673,-34.383751
Argentina/Santa Clara,Santa Clara,-64.662529,-24.30921
Argentina/Santa Cruz,Santa Cruz,-68.566666,-50.016666
Argentina/Santa Eufemia,Santa Eufemia,-63.28281,-33.176579
Argentina/Santa Fe de la Vera Cruz,Santa Fe de la Vera Cruz,-60.700001,-31.633329
Argentina/Santa Isabel,Santa Isabel,-66.942398,-36.227242
Argentina/Santa Lucía,Santa Lucía,-59.102871,-28.987459
Argentina/Santa Magdalena,Santa Magdalena,-63.944092,-34.517761
Argentina/Santa María,Santa María,-55.38541,-27.903561
Argentina/Santa Rosa,Santa Rosa,-58.118912,-28.26318
Argentina/Santa Rosa de Calamuchita,Santa Rosa de Calamuchita,-64.536308,-32.06905
Argentina/Santa Rosa de Río Primero,Santa Rosa de Río Primero,-63.401909,-31.152309
Argentina/Santa Rosa de Tastil,Santa Rosa de Tastil,-65.974518,-24.45166
Argentina/Santa Rosa del Conlara,Santa Rosa del Conlara,-65.203232,-32.342861
Argentina/Santa Sylvina,Santa Sylvina,-61.13747,-27.832609
Argentina/Santiago Del Estero,Santiago Del Estero,-64.300003,-27.766666
Argentina/Santiago Temple,Santiago Temple,-63.418209,-31.38731
Argentina/Santo Pipó,Santo Pipó,-55.408669,-27.141319
Argentina/Santo Tomé,Santo Tomé,-56.040771,-28.549391
Argentina/Sastre,Sastre,-61.828861,-31.76762
Argentina/Saturnino M. Laspiur,Saturnino M. Laspiur,-62.482021,-31.702869
Argentina/Sauce de Luna,Sauce de Luna,-59.218719,-31.23794
Argentina/Sebastián Elcano,Sebastián Elcano,-63.593601,-30.161051
Argentina/Seguí,Seguí,-60.124882,-31.956421
Argentina/Senillosa,Senillosa,-68.416672,-39.0
Argentina/Serrano,Serrano,-63.538422,-34.469711
Argentina/Serrezuela,Serrezuela,-65.386917,-30.637609
Argentina/Sierra Colorada,Sierra Colorada,-67.756737,-40.584869
Argentina/Sierra Grande,Sierra Grande,-65.355743,-41.606022
Argentina/Simoca,Simoca,-65.356468,-27.26272
Argentina/Spurr,Spurr,-62.316666,-38.683334
Argentina/Sumampa,Sumampa,-63.469059,-29.384701
Argentina/Sunchales,Sunchales,-61.561481,-30.94404
Argentina/Suncho Corral,Suncho Corral,-63.429379,-27.933571
Argentina/Tabossi,Tabossi,-59.934769,-31.80135
Argentina/Taco Pozo,Taco Pozo,-63.283329,-25.616671
Argentina/Tacuara,Tacuara,-65.083336,-24.383333
Argentina/Tafí Viejo,Tafí Viejo,-65.259209,-26.73201
Argentina/Tafí del Valle,Tafí del Valle,-65.709831,-26.852751
Argentina/Tancacha,Tancacha,-63.980701,-32.243092
Argentina/Tandil,Tandil,-59.233334,-37.233334
Argentina/Tapebicuá,Tapebicuá,-56.97488,-29.506161
Argentina/Tartagal,Tartagal,-63.801311,-22.516359
Argentina/Telén,Telén,-65.510178,-36.26429
Argentina/Termas de Río Hondo,Termas de Río Hondo,-64.86042,-27.49983
Argentina/Ticino,Ticino,-63.436062,-32.693501
Argentina/Tigre,Tigre,-58.416668,-34.566666
Argentina/Tilcara,Tilcara,-65.350899,-23.57757
Argentina/Tilisarao,Tilisarao,-65.291092,-32.732922
Argentina/Tinogasta,Tinogasta,-67.56488,-28.06319
Argentina/Tintina,Tintina,-62.716671,-27.033331
Argentina/Toledo,Toledo,-64.009468,-31.55574
Argentina/Tostado,Tostado,-61.769169,-29.232019
Argentina/Totoras,Totoras,-61.168522,-32.5844
Argentina/Trancas,Trancas,-65.280251,-26.23135
Argentina/Trelew,Trelew,-65.316666,-43.233334
Argentina/Trenel,Trenel,-64.132179,-35.698372
Argentina/Tres Arroyos,Tres Arroyos,-60.279781,-38.37394
Argentina/Tres Capones,Tres Capones,-55.60471,-28.006411
Argentina/Tres Isletas,Tres Isletas,-60.432072,-26.34066
Argentina/Trevelin,Trevelin,-71.46386,-43.0858
Argentina/Tucuman,Tucuman,-65.099998,-26.85
Argentina/Tío Pujio,Tío Pujio,-63.35598,-32.287899
Argentina/Ubajay,Ubajay,-58.313499,-31.793579
Argentina/Ucacha,Ucacha,-63.50666,-33.032028
Argentina/Unión,Unión,-65.946022,-35.152821
Argentina/Unquillo,Unquillo,-64.316147,-31.23073
Argentina/Urdinarrain,Urdinarrain,-58.893242,-32.68573
Argentina/Uriburu,Uriburu,-63.862259,-36.506821
Argentina/Ushuaia,Ushuaia,-68.316666,-54.816666
Argentina/Uspallata,Uspallata,-69.348717,-32.591702
Argentina/Valcheta,Valcheta,-66.150002,-40.700001
Argentina/Valle Hermoso,Valle Hermoso,-64.480843,-31.117319
Argentina/Veinticinco de Mayo,Veinticinco de Mayo,-54.743118,-27.376789
Argentina/Venado Tuerto,Venado Tuerto,-61.968842,-33.74556
Argentina/Vera,Vera,-60.212608,-29.459299
Argentina/Viale,Viale,-60.007221,-31.867821
Argentina/Viamonte,Viamonte,-63.097641,-33.746471
Argentina/Victoria,Victoria,-65.416664,-36.216667
Argentina/Victorica,Victorica,-65.43586,-36.21505
Argentina/Vicuña Mackenna,Vicuña Mackenna,-64.392151,-33.919651
Argentina/Viedma,Viedma,-63.0,-40.900002
Argentina/Villa Allende,Villa Allende,-64.29538,-31.29458
Argentina/Villa Ascasubi,Villa Ascasubi,-63.891571,-32.163509
Argentina/Villa Atamisqui,Villa Atamisqui,-63.81609,-28.49609
Argentina/Villa Berna,Villa Berna,-64.756508,-31.90321
Argentina/Villa Berthet,Villa Berthet,-60.412628,-27.29174
Argentina/Villa Bustos,Villa Bustos,-67.033081,-29.28483
Argentina/Villa Carlos Paz,Villa Carlos Paz,-64.49778,-31.424141
Argentina/Villa Catedral,Villa Catedral,-71.438766,-41.167351
Argentina/Villa Cañás,Villa Cañás,-61.607571,-34.00565
Argentina/Villa Concepción del Tío,Villa Concepción del Tío,-62.813541,-31.32259
Argentina/Villa Constitución,Villa Constitución,-60.3297,-33.227779
Argentina/Villa Cura Brochero,Villa Cura Brochero,-65.01796,-31.70578
Argentina/Villa Dolores,Villa Dolores,-65.133331,-31.950001
Argentina/Villa Elisa,Villa Elisa,-58.400822,-32.1632
Argentina/Villa Escolar,Villa Escolar,-58.671341,-26.622089
Argentina/Villa General Belgrano,Villa General Belgrano,-64.555901,-31.97542
Argentina/Villa General Mitre,Villa General Mitre,-62.652481,-29.143101
Argentina/Villa General Roca,Villa General Roca,-66.450523,-32.665352
Argentina/Villa Gesell,Villa Gesell,-56.973042,-37.263939
Argentina/Villa Giardino,Villa Giardino,-64.48333,-31.033331
Argentina/Villa Hernandarias,Villa Hernandarias,-59.985001,-31.23101
Argentina/Villa Huidobro,Villa Huidobro,-64.586861,-34.838261
Argentina/Villa La Angostura,Villa La Angostura,-71.646309,-40.76173
Argentina/Villa Las Rosas,Villa Las Rosas,-65.053543,-31.950211
Argentina/Villa Lugano,Villa Lugano,-58.472618,-34.67907
Argentina/Villa Mantero,Villa Mantero,-58.74596,-32.39727
Argentina/Villa María,Villa María,-63.240162,-32.407509
Argentina/Villa María Del Río Seco,Villa María Del Río Seco,-63.683331,-29.9
Argentina/Villa María Grande,Villa María Grande,-59.901821,-31.665649
Argentina/Villa Mercedes,Villa Mercedes,-65.48333,-33.683334
Argentina/Villa Nueva,Villa Nueva,-63.247631,-32.43293
Argentina/Villa O'Higgins,Villa O'Higgins,-72.560921,-48.46521
Argentina/Villa Ocampo,Villa Ocampo,-59.355148,-28.48752
Argentina/Villa Ojo de Agua,Villa Ojo de Agua,-63.693771,-29.500031
Argentina/Villa Olga,Villa Olga,-62.150002,-38.716667
Argentina/Villa Paranacito,Villa Paranacito,-58.657982,-33.72208
Argentina/Villa Paula de Sarmiento,Villa Paula de Sarmiento,-68.538383,-31.493299
Argentina/Villa Reducción,Villa Reducción,-63.862339,-33.20105
Argentina/Villa Regina,Villa Regina,-67.066673,-39.099998
Argentina/Villa Reynolds,Villa Reynolds,-65.383331,-33.733334
Argentina/Villa Rumipal,Villa Rumipal,-64.48027,-32.187901
Argentina/Villa Santa Rita,Villa Santa Rita,-58.480999,-34.610821
Argentina/Villa Trinidad,Villa Trinidad,-61.875969,-30.213289
Argentina/Villa Tulumba,Villa Tulumba,-64.122398,-30.395519
Argentina/Villa Urquiza,Villa Urquiza,-60.374802,-31.64731
Argentina/Villa Valeria,Villa Valeria,-64.920303,-34.340931
Argentina/Villa de Soto,Villa de Soto,-64.999474,-30.85523
Argentina/Villa del Dique,Villa del Dique,-64.455429,-32.17667
Argentina/Villa del Rosario,Villa del Rosario,-57.912571,-30.79567
Argentina/Villa del Totoral,Villa del Totoral,-63.716671,-30.816669
Argentina/Villa Ángela,Villa Ángela,-60.71526,-27.57383
Argentina/Villaguay,Villaguay,-59.02689,-31.865299
Argentina/Vinchina,Vinchina,-68.206917,-28.75964
Argentina/Vista Alegre,Vista Alegre,-68.183327,-38.75
Argentina/Wenceslao Escalante,Wenceslao Escalante,-62.770779,-33.173031
Argentina/Winifreda,Winifreda,-64.233879,-36.226429
Argentina/Yacimiento Río Turbio,Yacimiento Río Turbio,-72.3508,-51.573212
Argentina/Yapeyú,Yapeyú,-56.818409,-29.469139
Argentina/Yataity Calle,Yataity Calle,-58.908459,-29.019131
Argentina/Yerba Buena,Yerba Buena,-65.316673,-26.816669
Argentina/Yuto,Yuto,-64.471939,-23.643419
Argentina/Zapala,Zapala,-70.05442,-38.899158
Argentina/Zonda,Zonda,-68.73333,-31.549999
Argentina/Zárate,Zárate,-59.02858,-34.098141
Armenia/Karakishlag,Karakishlag,44.470001,40.130001
Armenia/Yerevan,Yerevan,44.466667,40.133335
Aruba/Coba Lodo,Coba Lodo,-69.949997,12.5
Aruba/Dacota,Dacota,-70.01667,12.5
Aruba/Jan Flemming,Jan Flemming,-69.966667,12.48333
Aruba/Macuarima,Macuarima,-69.966667,12.5
Aruba/Noord,Noord,-70.01667,12.56667
Aruba/Oranjestad,Oranjestad,-70.01667,12.5
Aruba/Paradera,Paradera,-70.0,12.53333
Aruba/Pos Abao,Pos Abao,-70.033333,12.53333
Aruba/Sabana Grandi,Sabana Grandi,-69.98333,12.5
Aruba/Shete,Shete,-69.933327,12.5
Aruba/Soledad,Soledad,-70.0,12.55
Ascension Island/Georgetown,Georgetown,-14.4,-7.966667
Australia/Australian Capital Territory/Canberra,Canberra,149.199997,-35.316666
Australia/Australian Capital Territory/Gibraltar,Gibraltar,149.100006,-35.299999
Australia/Australian Capital Territory/Gudgenby,Gudgenby,148.96666,-35.75
Australia/Australian Capital Territory/Hall,Hall,149.0,-35.299999
Australia/Australian Capital Territory/Tharwa,Tharwa,148.96666,-35.580002
Australia/Australian Capital Territory/Yarrayumla,Yarrayumla,149.100006,-35.299999
Australia/New South Wales/Adelong,Adelong,148.050003,-35.310001
Australia/New South Wales/Arakoon,Arakoon,153.083328,-30.92
Australia/New South Wales/Armidale,Armidale,151.666672,-30.52
Australia/New South Wales/Ashley,Ashley,149.833328,-29.48
Australia/New South Wales/Avalon Beach,Avalon Beach,144.483337,-38.033333
Australia/New South Wales/Bairnkine,Bairnkine,148.116669,-30.02
Australia/New South Wales/Balranald,Balranald,143.550003,-34.639999
Australia/New South Wales/Bamarong,Bamarong,150.53334,-34.950001
Australia/New South Wales/Banksmeadow,Banksmeadow,151.166672,-33.939999
Australia/New South Wales/Bankstown,Bankstown,150.949997,-33.916668
Australia/New South Wales/Baradine,Baradine,149.050003,-30.950001
Australia/New South Wales/Barraba,Barraba,150.600006,-30.379999
Australia/New South Wales/Bathurst,Bathurst,149.649994,-33.416668
Australia/New South Wales/Beecroft Pen,Beecroft Pen,150.800003,-35.099998
Australia/New South Wales/Bega,Bega,149.816666,-36.68
Australia/New South Wales/Bellambi Point,Bellambi Point,150.866669,-34.41
Australia/New South Wales/Bellingen,Bellingen,152.899994,-30.450001
Australia/New South Wales/Berrima,Berrima,150.399994,-34.490002
Australia/New South Wales/Blakehurst,Blakehurst,150.983337,-33.919998
Australia/New South Wales/Bombala,Bombala,149.233337,-36.91
Australia/New South Wales/Boomooderie,Boomooderie,153.050003,-28.879999
Australia/New South Wales/Bourke,Bourke,145.96666,-30.083334
Australia/New South Wales/Brewarrina,Brewarrina,146.850006,-29.959999
Australia/New South Wales/Brocklehurst,Brocklehurst,148.566666,-32.209999
Australia/New South Wales/Brodies Plains,Brodies Plains,151.100006,-29.780001
Australia/New South Wales/Broken Hill,Broken Hill,141.46666,-31.983334
Australia/New South Wales/Brooklana,Brooklana,152.850006,-30.25
Australia/New South Wales/Bryon Bay,Bryon Bay,153.616669,-28.639999
Australia/New South Wales/Budgewoi,Budgewoi,151.566666,-33.279999
Australia/New South Wales/Bungendore,Bungendore,149.116669,-35.27
Australia/New South Wales/Bunyan,Bunyan,149.116669,-36.23
Australia/New South Wales/Camden,Camden,150.683334,-34.040001
Australia/New South Wales/Campbelltown,Campbelltown,150.816666,-34.080002
Australia/New South Wales/Camurra,Camurra,149.899994,-29.5
Australia/New South Wales/Carrs Creek,Carrs Creek,152.916672,-29.68
Australia/New South Wales/Casino,Casino,153.066666,-28.883333
Australia/New South Wales/Cathundral,Cathundral,147.949997,-31.99
Australia/New South Wales/Clergate,Clergate,149.100006,-33.279999
Australia/New South Wales/Cobar,Cobar,145.833328,-31.483334
Australia/New South Wales/Coffs Harbour,Coffs Harbour,153.116669,-30.316668
Australia/New South Wales/Collarenebri,Collarenebri,148.566666,-29.549999
Australia/New South Wales/Conargo,Conargo,145.050003,-35.369999
Australia/New South Wales/Condobolin,Condobolin,147.149994,-33.080002
Australia/New South Wales/Cooma,Cooma,148.96666,-36.299999
Australia/New South Wales/Coonabarabran,Coonabarabran,149.266663,-31.27
Australia/New South Wales/Coonamble,Coonamble,148.366669,-30.98
Australia/New South Wales/Cootamundra,Cootamundra,148.016663,-34.639999
Australia/New South Wales/Corowa,Corowa,146.350006,-35.990002
Australia/New South Wales/Cowra,Cowra,148.649994,-33.849998
Australia/New South Wales/Dahwilly,Dahwilly,144.949997,-35.560001
Australia/New South Wales/Deniliquin,Deniliquin,144.949997,-35.549999
Australia/New South Wales/Derriwong,Derriwong,147.21666,-33.07
Australia/New South Wales/Dubbo,Dubbo,148.566666,-32.216667
Australia/New South Wales/Dunedoo,Dunedoo,149.399994,-32.02
Australia/New South Wales/Eglinton,Eglinton,149.550003,-33.43
Australia/New South Wales/Engadine,Engadine,150.96666,-34.049999
Australia/New South Wales/Forbes,Forbes,148.0,-33.389999
Australia/New South Wales/Galston,Galston,151.016663,-33.790001
Australia/New South Wales/Geehi,Geehi,148.28334,-36.490002
Australia/New South Wales/Glen Innes,Glen Innes,151.733337,-29.74
Australia/New South Wales/Glenhaven,Glenhaven,151.0,-33.82
Australia/New South Wales/Gordon,Gordon,151.116669,-33.77
Australia/New South Wales/Goulburn,Goulburn,149.733337,-34.720001
Australia/New South Wales/Greenhill,Greenhill,152.816666,-31.059999
Australia/New South Wales/Grenfell,Grenfell,148.149994,-33.900002
Australia/New South Wales/Griffith,Griffith,146.066666,-34.25
Australia/New South Wales/Gulgong,Gulgong,149.516663,-32.369999
Australia/New South Wales/Gundagai,Gundagai,148.100006,-35.080002
Australia/New South Wales/Gundaroo,Gundaroo,149.199997,-35.310001
Australia/New South Wales/Gundy,Gundy,150.916672,-32.060001
Australia/New South Wales/Gunnedah,Gunnedah,150.25,-30.98
Australia/New South Wales/Hay,Hay,144.850006,-34.52
Australia/New South Wales/Hillston,Hillston,145.516663,-33.490002
Australia/New South Wales/Illewong,Illewong,145.816666,-31.49
Australia/New South Wales/Iluka,Iluka,153.350006,-29.43
Australia/New South Wales/Inverell,Inverell,151.133331,-29.883333
Australia/New South Wales/Ivanhoe,Ivanhoe,144.300003,-32.900002
Australia/New South Wales/Jerrys Plains,Jerrys Plains,150.899994,-32.5
Australia/New South Wales/Jersey,Jersey,145.800003,-31.5
Australia/New South Wales/Katoomba,Katoomba,150.300003,-33.720001
Australia/New South Wales/Khancoban,Khancoban,148.133331,-36.23
Australia/New South Wales/Kitchener,Kitchener,151.350006,-32.810001
Australia/New South Wales/Koorainghat,Koorainghat,152.46666,-31.9
Australia/New South Wales/Kororo Basin,Kororo Basin,153.116669,-30.32
Australia/New South Wales/Ladysmith,Ladysmith,147.449997,-35.16
Australia/New South Wales/Lake Cargelligo,Lake Cargelligo,146.366669,-33.279999
Australia/New South Wales/Leeton,Leeton,146.399994,-34.57
Australia/New South Wales/Lismore,Lismore,153.25,-28.809999
Australia/New South Wales/Lithgow,Lithgow,150.149994,-33.490002
Australia/New South Wales/Lockhart,Lockhart,143.300003,-12.783334
Australia/New South Wales/Lostock,Lostock,151.449997,-32.330002
Australia/New South Wales/Malebo,Malebo,147.366669,-35.130001
Australia/New South Wales/Mangrove Mountain,Mangrove Mountain,151.233337,-33.310001
Australia/New South Wales/Medowie,Medowie,151.816666,-32.799999
Australia/New South Wales/Merimbula,Merimbula,149.899994,-36.916668
Australia/New South Wales/Millthorpe,Millthorpe,149.166672,-33.450001
Australia/New South Wales/Minmi,Minmi,151.75,-32.91
Australia/New South Wales/Minto,Minto,150.899994,-33.93
Australia/New South Wales/Molong,Molong,148.850006,-33.099998
Australia/New South Wales/Moorland,Moorland,152.766663,-31.083334
Australia/New South Wales/Moree,Moree,149.850006,-29.466667
Australia/New South Wales/Morongla Creek,Morongla Creek,148.699997,-33.900002
Australia/New South Wales/Moruya Heads,Moruya Heads,150.149994,-35.91
Australia/New South Wales/Moss Vale,Moss Vale,150.366669,-34.549999
Australia/New South Wales/Mount Victoria,Mount Victoria,150.25,-33.599998
Australia/New South Wales/Mudgee,Mudgee,149.566666,-32.59
Australia/New South Wales/Mugincoble,Mugincoble,148.149994,-33.139999
Australia/New South Wales/Murrumbucca,Murrumbucca,149.116669,-36.23
Australia/New South Wales/Murrurundi,Murrurundi,150.833328,-31.77
Australia/New South Wales/Murwillumbah,Murwillumbah,153.366669,-28.34
Australia/New South Wales/Mystery Bay,Mystery Bay,150.21666,-36.259998
Australia/New South Wales/Naradhan,Naradhan,146.316666,-33.619999
Australia/New South Wales/Narrabarba,Narrabarba,150.050003,-37.259998
Australia/New South Wales/Narrabri,Narrabri,149.75,-30.34
Australia/New South Wales/Narrandera,Narrandera,146.550003,-34.740002
Australia/New South Wales/Narromine,Narromine,148.233337,-32.216667
Australia/New South Wales/Nerriga,Nerriga,150.083328,-35.119999
Australia/New South Wales/Newcastle,Newcastle,151.800003,-32.919998
Australia/New South Wales/Noonbinna,Noonbinna,148.649994,-33.849998
Australia/New South Wales/Nowra,Nowra,150.53334,-34.950001
Australia/New South Wales/Nulty,Nulty,145.933334,-30.09
Australia/New South Wales/Oakvale,Oakvale,143.366669,-31.57
Australia/New South Wales/Oberon,Oberon,149.866669,-33.720001
Australia/New South Wales/Orange,Orange,149.133331,-33.383335
Australia/New South Wales/Paddys Flat,Paddys Flat,152.449997,-28.76
Australia/New South Wales/Pambula,Pambula,149.899994,-36.91
Australia/New South Wales/Parkes,Parkes,148.233337,-33.133335
Australia/New South Wales/Paterson,Paterson,151.583328,-32.630001
Australia/New South Wales/Peak Hill,Peak Hill,148.183334,-32.720001
Australia/New South Wales/Penrith,Penrith,150.699997,-33.799999
Australia/New South Wales/Perisher Valley,Perisher Valley,148.399994,-36.41
Australia/New South Wales/Port Kembla,Port Kembla,150.899994,-34.48
Australia/New South Wales/Port Macquarie,Port Macquarie,152.916672,-31.440001
Australia/New South Wales/Porters Retreat,Porters Retreat,149.833328,-34.009998
Australia/New South Wales/Quandialla,Quandialla,147.78334,-34.009998
Australia/New South Wales/Richmond,Richmond,150.78334,-33.599998
Australia/New South Wales/Scone,Scone,150.866669,-32.049999
Australia/New South Wales/Scotland Island,Scotland Island,151.199997,-33.860001
Australia/New South Wales/Spring Hill,Spring Hill,149.116669,-33.380001
Australia/New South Wales/Stephens Creek,Stephens Creek,141.46666,-31.98
Australia/New South Wales/Sutton,Sutton,149.100006,-35.299999
Australia/New South Wales/Sydney,Sydney,151.166672,-33.933334
Australia/New South Wales/Tamworth,Tamworth,150.850006,-31.083334
Australia/New South Wales/Taralga,Taralga,149.816666,-34.41
Australia/New South Wales/Tenterfield,Tenterfield,152.016663,-29.049999
Australia/New South Wales/Terrey Hills,Terrey Hills,151.149994,-33.830002
Australia/New South Wales/The Risk,The Risk,152.916672,-28.48
Australia/New South Wales/Thredbo Village,Thredbo Village,148.300003,-36.509998
Australia/New South Wales/Thurgoona,Thurgoona,146.916672,-36.07
Australia/New South Wales/Tibooburra,Tibooburra,142.0,-29.440001
Australia/New South Wales/Tocumwal,Tocumwal,145.583328,-35.810001
Australia/New South Wales/Towrang,Towrang,149.866669,-34.75
Australia/New South Wales/Tullamore,Tullamore,147.566666,-32.630001
Australia/New South Wales/Tumbarumba,Tumbarumba,148.0,-35.779999
Australia/New South Wales/Tyalgum,Tyalgum,153.199997,-28.360001
Australia/New South Wales/Urbenville,Urbenville,152.550003,-28.469999
Australia/New South Wales/Wagga,Wagga,147.46666,-35.166668
Australia/New South Wales/Walgett,Walgett,148.166672,-30.033333
Australia/New South Wales/Warral,Warral,150.850006,-31.09
Australia/New South Wales/Wellington,Wellington,148.933334,-32.560001
Australia/New South Wales/Wentworth,Wentworth,141.899994,-34.110001
Australia/New South Wales/West Hoxton,West Hoxton,150.916672,-33.82
Australia/New South Wales/White Cliffs,White Cliffs,143.083328,-30.85
Australia/New South Wales/Whiterock,Whiterock,149.550003,-33.419998
Australia/New South Wales/Whittingham,Whittingham,151.166672,-32.610001
Australia/New South Wales/Wilcannia,Wilcannia,143.383331,-31.549999
Australia/New South Wales/Williamsdale,Williamsdale,148.949997,-35.630001
Australia/New South Wales/Williamtown,Williamtown,151.833328,-32.799999
Australia/New South Wales/Windsor,Windsor,150.766663,-33.599998
Australia/New South Wales/Wollongong,Wollongong,150.866669,-34.43
Australia/New South Wales/Woolbrook,Woolbrook,151.333328,-30.969999
Australia/New South Wales/Wumbulgal,Wumbulgal,146.066666,-34.32
Australia/New South Wales/Wyalong,Wyalong,147.233337,-33.93
Australia/New South Wales/Yarras,Yarras,152.25,-31.389999
Australia/New South Wales/Yass,Yass,148.899994,-34.830002
Australia/New South Wales/Young,Young,148.300003,-34.32
Australia/Northern Territory/Alice Springs,Alice Springs,133.883331,-23.816668
Australia/Northern Territory/Alyangula,Alyangula,136.416672,-13.85
Australia/Northern Territory/Angurugu,Angurugu,136.416672,-13.98
Australia/Northern Territory/Bagot,Bagot,130.866669,-12.42
Australia/Northern Territory/Barrow Creek,Barrow Creek,133.883331,-21.530001
Australia/Northern Territory/Birdum,Birdum,133.199997,-15.58
Australia/Northern Territory/Bond Springs,Bond Springs,133.866669,-23.709999
Australia/Northern Territory/Borroloola,Borroloola,136.300003,-16.07
Australia/Northern Territory/Brunette Downs,Brunette Downs,135.949997,-18.639999
Australia/Northern Territory/Camfield,Camfield,130.866669,-17.379999
Australia/Northern Territory/Cape Don,Cape Don,131.766663,-11.32
Australia/Northern Territory/Charlotte Waters,Charlotte Waters,134.916672,-25.933332
Australia/Northern Territory/Curtin Springs,Curtin Springs,131.75,-25.32
Australia/Northern Territory/Daly Waters,Daly Waters,133.383331,-16.266666
Australia/Northern Territory/Darwin,Darwin,130.883331,-12.433333
Australia/Northern Territory/Dunmara,Dunmara,133.366669,-16.27
Australia/Northern Territory/Elcho Island,Elcho Island,135.550003,-12.03
Australia/Northern Territory/Elizabeth Downs,Elizabeth Downs,130.666672,-13.74
Australia/Northern Territory/Elliott,Elliott,133.53334,-17.559999
Australia/Northern Territory/Eva Valley,Eva Valley,132.266663,-14.44
Australia/Northern Territory/Finke,Finke,134.566666,-25.58
Australia/Northern Territory/Garden Point Mission,Garden Point Mission,130.416672,-11.4
Australia/Northern Territory/Gove,Gove,136.816666,-12.28
Australia/Northern Territory/Hidden Valley,Hidden Valley,133.366669,-16.26
Australia/Northern Territory/Jervols,Jervols,136.133331,-22.950001
Australia/Northern Territory/Kulgera,Kulgera,133.300003,-25.84
Australia/Northern Territory/Manangoora,Manangoora,136.800003,-15.74
Australia/Northern Territory/Manbulloo,Manbulloo,132.25,-14.48
Australia/Northern Territory/Maningrida,Maningrida,134.21666,-12.05
Australia/Northern Territory/McArthur River,McArthur River,136.066666,-16.440001
Australia/Northern Territory/Milingimbi Mission,Milingimbi Mission,134.899994,-12.12
Australia/Northern Territory/Minjilang,Minjilang,132.550003,-11.15
Australia/Northern Territory/Mount Ertwa,Mount Ertwa,133.866669,-23.809999
Australia/Northern Territory/Newcastle Waters,Newcastle Waters,133.399994,-17.379999
Australia/Northern Territory/Nhulunbuy,Nhulunbuy,136.75,-12.2
Australia/Northern Territory/Oenpelli,Oenpelli,133.050003,-12.33
Australia/Northern Territory/Orlando,Orlando,134.166672,-19.639999
Australia/Northern Territory/Parap,Parap,130.800003,-12.4
Australia/Northern Territory/Phillip Creek,Phillip Creek,134.183334,-19.629999
Australia/Northern Territory/Ringwood,Ringwood,134.949997,-23.83
Australia/Northern Territory/Tanami,Tanami,130.016663,-20.190001
Australia/Northern Territory/Tennant Creek,Tennant Creek,134.183334,-19.633333
Australia/Northern Territory/Timber Creek,Timber Creek,130.46666,-15.66
Australia/Northern Territory/Urapunga,Urapunga,134.516663,-14.74
Australia/Northern Territory/Victoria River Downs,Victoria River Downs,131.0,-16.4
Australia/Northern Territory/Warruwi,Warruwi,133.383331,-11.65
Australia/Northern Territory/Wave Hill,Wave Hill,130.949997,-17.5
Australia/Northern Territory/Wave Hill - New Station,Wave Hill - New Station,131.116669,-17.389999
Australia/Northern Territory/Wonarah,Wonarah,136.333328,-19.9
Australia/Northern Territory/Yirrkala Mission,Yirrkala Mission,136.866669,-12.25
Australia/Northern Territory/Yuendumu,Yuendumu,131.800003,-22.26
Australia/Queensland/Adavale,Adavale,144.600006,-25.92
Australia/Queensland/Airlie,Airlie,148.949997,-20.35
Australia/Queensland/Alderley,Alderley,139.899994,-22.91
Australia/Queensland/Aloomba,Aloomba,146.0,-16.93
Australia/Queensland/Amberley,Amberley,152.699997,-27.639999
Australia/Queensland/Applethorpe,Applethorpe,151.949997,-28.620001
Australia/Queensland/Bagara,Bagara,152.350006,-24.866667
Australia/Queensland/Baralaba,Baralaba,149.800003,-24.18
Australia/Queensland/Barcaldine,Barcaldine,145.28334,-23.549999
Australia/Queensland/Barmaryee,Barmaryee,150.71666,-23.1
Australia/Queensland/Belmont,Belmont,153.016663,-27.48
Australia/Queensland/Bemerside,Bemerside,146.166672,-18.65
Australia/Queensland/Birdsville,Birdsville,139.350006,-25.9
Australia/Queensland/Blackall,Blackall,145.46666,-24.42
Australia/Queensland/Bollon,Bollon,147.46666,-28.030001
Australia/Queensland/Boodua,Boodua,151.733337,-27.41
Australia/Queensland/Boonooroo,Boonooroo,153.183334,-25.93
Australia/Queensland/Boulia,Boulia,139.78334,-22.916666
Australia/Queensland/Bowen,Bowen,148.25,-20.02
Australia/Queensland/Brisbane,Brisbane,153.116669,-27.383333
Australia/Queensland/Builyan,Builyan,151.46666,-24.530001
Australia/Queensland/Bulwer,Bulwer,153.46666,-27.030001
Australia/Queensland/Bundaberg,Bundaberg,152.316666,-24.9
Australia/Queensland/Burketown,Burketown,139.550003,-17.74
Australia/Queensland/Burua,Burua,151.25,-23.860001
Australia/Queensland/Caboonbah,Caboonbah,152.550003,-27.120001
Australia/Queensland/Cairns,Cairns,145.75,-16.883333
Australia/Queensland/Caloundra,Caloundra,153.149994,-26.799999
Australia/Queensland/Cannonvale,Cannonvale,148.883331,-20.059999
Australia/Queensland/Cardwell,Cardwell,146.016663,-18.26
Australia/Queensland/Carnarvon Gorge,Carnarvon Gorge,113.666664,-24.883333
Australia/Queensland/Cedar Grove,Cedar Grove,153.0,-27.83
Australia/Queensland/Charleville,Charleville,146.266663,-26.416666
Australia/Queensland/Charlotte Plains,Charlotte Plains,145.96666,-28.1
Australia/Queensland/Charters Towners,Charters Towners,146.25,-20.08
Australia/Queensland/Clayton,Clayton,152.316666,-24.91
Australia/Queensland/Clermont,Clermont,147.633331,-22.83
Australia/Queensland/Cleveland,Cleveland,153.25,-27.530001
Australia/Queensland/Cloncurry,Cloncurry,140.516663,-20.666666
Australia/Queensland/Coen,Coen,143.199997,-13.94
Australia/Queensland/Collinsville,Collinsville,147.850006,-20.549999
Australia/Queensland/Cooktown,Cooktown,145.183334,-15.45
Australia/Queensland/Coolangatta,Coolangatta,153.5,-28.166666
Australia/Queensland/Cramsie,Cramsie,144.25,-23.450001
Australia/Queensland/Croydon,Croydon,142.233337,-18.209999
Australia/Queensland/Cunnamulla,Cunnamulla,145.666672,-28.07
Australia/Queensland/Dalby,Dalby,151.25,-27.18
Australia/Queensland/Donors Hill,Donors Hill,140.550003,-18.709999
Australia/Queensland/Downsfield,Downsfield,152.816666,-26.0
Australia/Queensland/El Arish,El Arish,145.96666,-17.530001
Australia/Queensland/Elgin Downs,Elgin Downs,146.949997,-21.950001
Australia/Queensland/Emerald,Emerald,148.149994,-23.530001
Australia/Queensland/Endeavour,Endeavour,145.183334,-15.45
Australia/Queensland/Foxdale,Foxdale,148.566666,-20.4
Australia/Queensland/Gayndah,Gayndah,151.600006,-25.629999
Australia/Queensland/Georgetown,Georgetown,143.550003,-18.290001
Australia/Queensland/Gladstone,Gladstone,151.266663,-23.85
Australia/Queensland/Goondiwindi,Goondiwindi,150.300003,-28.549999
Australia/Queensland/Gracemere,Gracemere,150.5,-23.4
Australia/Queensland/Great Barrier Reef Marine Park,Great Barrier Reef Marine Park,143.116669,-13.766666
Australia/Queensland/Greenhills,Greenhills,145.25,-15.46
Australia/Queensland/Gympie,Gympie,152.633331,-26.16
Australia/Queensland/Hammond,Hammond,142.199997,-10.59
Australia/Queensland/Heron Island,Heron Island,151.916672,-23.450001
Australia/Queensland/Horn Island,Horn Island,142.300003,-10.583333
Australia/Queensland/Hughenden,Hughenden,144.199997,-20.84
Australia/Queensland/Imbil,Imbil,152.666672,-26.459999
Australia/Queensland/Ingham,Ingham,146.149994,-18.666666
Australia/Queensland/Injune,Injune,148.566666,-25.84
Australia/Queensland/Innisfail,Innisfail,146.016663,-17.52
Australia/Queensland/Ipswich,Ipswich,152.71666,-27.65
Australia/Queensland/Isisford,Isisford,144.433334,-24.26
Australia/Queensland/Iveragh,Iveragh,151.766663,-24.02
Australia/Queensland/Jabaroo Outstation,Jabaroo Outstation,143.100006,-13.76
Australia/Queensland/Julia Creek,Julia Creek,141.733337,-20.66
Australia/Queensland/Kalpowar,Kalpowar,151.300003,-24.690001
Australia/Queensland/Kilcoy,Kilcoy,152.550003,-27.030001
Australia/Queensland/Kingaroy,Kingaroy,151.850006,-26.549999
Australia/Queensland/Lady Elliot Island,Lady Elliot Island,152.699997,-24.120001
Australia/Queensland/Loamside,Loamside,152.75,-27.620001
Australia/Queensland/Lochnagar Outstation,Lochnagar Outstation,141.75,-15.48
Australia/Queensland/Lockhart River,Lockhart River,143.300003,-12.79
Australia/Queensland/Longreach,Longreach,144.28334,-23.433332
Australia/Queensland/Machans Beach,Machans Beach,145.75,-16.889999
Australia/Queensland/Mackay,Mackay,149.21666,-21.116667
Australia/Queensland/Maggieville,Maggieville,141.066666,-17.67
Australia/Queensland/Magowra,Magowra,140.833328,-17.49
Australia/Queensland/Mareeba,Mareeba,145.416672,-17.0
Australia/Queensland/Mary Kathleen,Mary Kathleen,139.46666,-20.73
Australia/Queensland/Maryborough,Maryborough,152.71666,-25.516666
Australia/Queensland/Miallo,Miallo,145.550003,-16.379999
Australia/Queensland/Miles,Miles,150.166672,-26.66
Australia/Queensland/Mitchell,Mitchell,147.96666,-26.49
Australia/Queensland/Monto,Monto,151.116669,-24.870001
Australia/Queensland/Moothandella,Moothandella,142.649994,-25.42
Australia/Queensland/Moreton Telegraph Station,Moreton Telegraph Station,142.633331,-12.46
Australia/Queensland/Mornington Mission,Mornington Mission,139.149994,-16.66
Australia/Queensland/Mount Guide,Mount Guide,139.46666,-20.68
Australia/Queensland/Mount Isa,Mount Isa,139.483337,-20.666666
Australia/Queensland/Mount Isa Mines,Mount Isa Mines,139.483337,-20.74
Australia/Queensland/Mount Surprise,Mount Surprise,144.316666,-18.15
Australia/Queensland/Mount Tamborine,Mount Tamborine,153.199997,-27.969999
Australia/Queensland/Mt Nebo,Mt Nebo,152.766663,-27.34
Australia/Queensland/Norley,Norley,143.816666,-28.0
Australia/Queensland/Normanton,Normanton,141.083328,-17.666666
Australia/Queensland/North Mackay,North Mackay,149.21666,-21.120001
Australia/Queensland/North Reef Lighthouse,North Reef Lighthouse,151.899994,-23.18
Australia/Queensland/Oakey,Oakey,151.733337,-27.4
Australia/Queensland/Oakhurst,Oakhurst,152.699997,-25.52
Australia/Queensland/Oakwood,Oakwood,152.350006,-24.870001
Australia/Queensland/Oolbun,Oolbun,147.016663,-19.18
Australia/Queensland/Orange Grove,Orange Grove,153.0,-27.57
Australia/Queensland/Pallarenda,Pallarenda,146.75,-19.25
Australia/Queensland/Palmerville,Palmerville,144.066666,-16.0
Australia/Queensland/Pine Islet,Pine Islet,150.21666,-21.67
Australia/Queensland/Pink Lily,Pink Lily,150.46666,-23.379999
Australia/Queensland/Pinkenba,Pinkenba,153.116669,-27.389999
Australia/Queensland/Port Douglas,Port Douglas,145.449997,-16.48
Australia/Queensland/Port Kennedy,Port Kennedy,142.21666,-10.58
Australia/Queensland/Proserpine,Proserpine,148.550003,-20.5
Australia/Queensland/Quamby,Quamby,140.5,-20.67
Australia/Queensland/Quilpie,Quilpie,144.25,-26.610001
Australia/Queensland/Richmond,Richmond,143.133331,-20.73
Australia/Queensland/Rockhampton,Rockhampton,150.46666,-23.383333
Australia/Queensland/Rocklands,Rocklands,138.116669,-19.92
Australia/Queensland/Roma,Roma,148.78334,-26.57
Australia/Queensland/Rosedale,Rosedale,144.266663,-23.440001
Australia/Queensland/Samford,Samford,152.883331,-27.360001
Australia/Queensland/Sandy Cape,Sandy Cape,153.199997,-24.73
Australia/Queensland/Southport,Southport,153.399994,-27.950001
Australia/Queensland/Springsure,Springsure,148.083328,-24.120001
Australia/Queensland/St. George,St. George,148.566666,-28.040001
Australia/Queensland/St. Lawrence,St. Lawrence,149.53334,-22.35
Australia/Queensland/Stanthorpe,Stanthorpe,151.916672,-28.66
Australia/Queensland/Surat,Surat,149.066666,-27.15
Australia/Queensland/Tambo,Tambo,146.25,-24.879999
Australia/Queensland/Targima,Targima,151.21666,-23.48
Australia/Queensland/Taroom,Taroom,149.800003,-25.65
Australia/Queensland/Te Kowai,Te Kowai,149.116669,-21.16
Australia/Queensland/Tewantin,Tewantin,153.03334,-26.389999
Australia/Queensland/Texas,Texas,151.166672,-28.85
Australia/Queensland/Thargomindah,Thargomindah,143.71666,-27.966667
Australia/Queensland/Theodore,Theodore,150.066666,-24.950001
Australia/Queensland/Thursday Island,Thursday Island,142.21666,-10.583333
Australia/Queensland/Toowoomba,Toowoomba,151.949997,-27.549999
Australia/Queensland/Townsville,Townsville,146.766663,-19.25
Australia/Queensland/Urandangi,Urandangi,138.300003,-21.610001
Australia/Queensland/Wallal,Wallal,146.25,-26.41
Australia/Queensland/Walterhall,Walterhall,150.383331,-23.629999
Australia/Queensland/Warwick,Warwick,152.016663,-28.219999
Australia/Queensland/Weipa,Weipa,141.866669,-12.63
Australia/Queensland/Westbrook,Westbrook,151.916672,-27.58
Australia/Queensland/Willis Island,Willis Island,149.983337,-16.299999
Australia/Queensland/Windorah,Windorah,142.600006,-25.433332
Australia/Queensland/Winton,Winton,143.03334,-22.389999
Australia/Queensland/Wombye,Wombye,152.933334,-26.65
Australia/South Australia/Adelaide,Adelaide,138.53334,-34.950001
Australia/South Australia/Andamooka,Andamooka,137.166672,-30.450001
Australia/South Australia/Arkaroola,Arkaroola,139.316666,-30.309999
Australia/South Australia/Ashton,Ashton,138.71666,-35.0
Australia/South Australia/Berri,Berri,140.600006,-34.279999
Australia/South Australia/Birkenhead,Birkenhead,138.616669,-34.799999
Australia/South Australia/Blinman,Blinman,138.550003,-31.129999
Australia/South Australia/Brighton,Brighton,138.616669,-34.919998
Australia/South Australia/Burajige,Burajige,136.583328,-35.75
Australia/South Australia/Carnding Road House,Carnding Road House,134.566666,-30.709999
Australia/South Australia/Ceduna,Ceduna,133.71666,-32.133335
Australia/South Australia/Clare,Clare,138.600006,-33.84
Australia/South Australia/Clarendon,Clarendon,138.516663,-34.950001
Australia/South Australia/Cleve,Cleve,136.483337,-33.700001
Australia/South Australia/Coober Pedy,Coober Pedy,134.75,-29.0
Australia/South Australia/Cook,Cook,130.449997,-30.616667
Australia/South Australia/Copley,Copley,138.399994,-30.469999
Australia/South Australia/Denial Bay,Denial Bay,133.666672,-32.130001
Australia/South Australia/Denmen,Denmen,130.399994,-30.620001
Australia/South Australia/Elizabeth,Elizabeth,138.616669,-34.700001
Australia/South Australia/Elliston,Elliston,134.883331,-33.650002
Australia/South Australia/Ernabella,Ernabella,132.116669,-26.290001
Australia/South Australia/Eudunda,Eudunda,139.083328,-34.18
Australia/South Australia/Farina,Farina,138.133331,-30.083334
Australia/South Australia/Fowlers Bay,Fowlers Bay,132.449997,-31.98
Australia/South Australia/Freeling,Freeling,138.833328,-34.5
Australia/South Australia/Gawler,Gawler,138.649994,-34.73
Australia/South Australia/Georgetown,Georgetown,138.399994,-33.360001
Australia/South Australia/Grassy Flat,Grassy Flat,138.116669,-35.84
Australia/South Australia/Halletts Cove,Halletts Cove,138.566666,-34.93
Australia/South Australia/Hawker,Hawker,138.416672,-31.889999
Australia/South Australia/Hope Valley,Hope Valley,138.649994,-34.849998
Australia/South Australia/Kadina,Kadina,137.71666,-33.959999
Australia/South Australia/Kangarilla,Kangarilla,138.600006,-35.0
Australia/South Australia/Kapunda,Kapunda,138.916672,-34.34
Australia/South Australia/Keith,Keith,140.350006,-36.099998
Australia/South Australia/Kersbrook,Kersbrook,138.616669,-34.779999
Australia/South Australia/Kimba,Kimba,136.416672,-33.139999
Australia/South Australia/Kingscote,Kingscote,137.633331,-35.66
Australia/South Australia/Krongart,Krongart,140.816666,-37.490002
Australia/South Australia/Kyancutta,Kyancutta,135.550003,-33.130001
Australia/South Australia/Lameroo,Lameroo,140.516663,-35.330002
Australia/South Australia/Leigh Creek,Leigh Creek,138.399994,-30.466667
Australia/South Australia/Loxton,Loxton,140.600006,-34.43
Australia/South Australia/Lucindale,Lucindale,140.350006,-36.970001
Australia/South Australia/Maitland,Maitland,137.666672,-34.380001
Australia/South Australia/Maralinga,Maralinga,131.616669,-30.166666
Australia/South Australia/Marree,Marree,138.050003,-29.65
Australia/South Australia/Meningie,Meningie,139.333328,-35.689999
Australia/South Australia/Minnipa,Minnipa,135.149994,-32.84
Australia/South Australia/Moomba,Moomba,140.199997,-28.110001
Australia/South Australia/Mount Barker,Mount Barker,138.850006,-35.07
Australia/South Australia/Mount Burr,Mount Burr,140.416672,-37.560001
Australia/South Australia/Mount Gambier,Mount Gambier,140.78334,-37.75
Australia/South Australia/Mount Wedge,Mount Wedge,135.28334,-33.509998
Australia/South Australia/Murray Bridge,Murray Bridge,139.266663,-35.119999
Australia/South Australia/Mylor,Mylor,138.71666,-35.029999
Australia/South Australia/Myponga,Myponga,138.449997,-35.389999
Australia/South Australia/Naracoorte,Naracoorte,140.733337,-36.959999
Australia/South Australia/Neptune Island,Neptune Island,136.116669,-35.34
Australia/South Australia/Nonning,Nonning,136.483337,-32.52
Australia/South Australia/Nuriootpa,Nuriootpa,139.0,-34.48
Australia/South Australia/Oodnadatta,Oodnadatta,135.449997,-27.566668
Australia/South Australia/Parndana,Parndana,137.316666,-35.799999
Australia/South Australia/Penfield,Penfield,138.633331,-34.783333
Australia/South Australia/Pimba,Pimba,136.816666,-31.15
Australia/South Australia/Port Augusta,Port Augusta,137.75,-32.483334
Australia/South Australia/Port Augusta West,Port Augusta West,137.766663,-32.5
Australia/South Australia/Port Lincoln,Port Lincoln,135.850006,-34.720001
Australia/South Australia/Port MacDonnell,Port MacDonnell,140.666672,-38.060001
Australia/South Australia/Port Pirie,Port Pirie,138.0,-33.18
Australia/South Australia/Price,Price,137.983337,-34.290001
Australia/South Australia/Renmark,Renmark,140.75,-34.169998
Australia/South Australia/Robe,Robe,139.75,-37.16
Australia/South Australia/Rocky River,Rocky River,136.699997,-36.07
Australia/South Australia/Roseworthy,Roseworthy,138.683334,-34.529999
Australia/South Australia/Snowtown,Snowtown,138.199997,-33.779999
Australia/South Australia/Stirling North,Stirling North,137.766663,-32.540001
Australia/South Australia/Strathalbyn,Strathalbyn,138.883331,-35.259998
Australia/South Australia/Straun,Straun,140.78334,-37.099998
Australia/South Australia/Streaky Bay,Streaky Bay,134.199997,-32.799999
Australia/South Australia/Tailem Bend,Tailem Bend,139.449997,-35.259998
Australia/South Australia/Tarcoola,Tarcoola,134.550003,-30.700001
Australia/South Australia/Victor Harbour,Victor Harbour,138.616669,-35.560001
Australia/South Australia/Virginia,Virginia,138.616669,-34.700001
Australia/South Australia/Waikerie,Waikerie,139.96666,-34.18
Australia/South Australia/Wanbi,Wanbi,140.266663,-34.779999
Australia/South Australia/Wandana,Wandana,133.699997,-32.130001
Australia/South Australia/Wandilo,Wandilo,140.78334,-37.75
Australia/South Australia/Warooka,Warooka,137.399994,-34.990002
Australia/South Australia/Whyalla,Whyalla,137.516663,-33.029999
Australia/South Australia/Wilcannia - East,Wilcannia - East,135.449997,-27.58
Australia/South Australia/William Creek,William Creek,136.350006,-28.916666
Australia/South Australia/Williamstown,Williamstown,138.949997,-34.709999
Australia/South Australia/Wilpoorinna,Wilpoorinna,138.266663,-30.07
Australia/South Australia/Woomera,Woomera,136.816666,-31.15
Australia/South Australia/Yarle Lakes,Yarle Lakes,131.566666,-30.16
Australia/South Australia/Yongala,Yongala,138.699997,-33.029999
Australia/South Australia/Yunta,Yunta,139.550003,-32.580002
Australia/Tasmania/Adventure Bay,Adventure Bay,147.133331,-43.490002
Australia/Tasmania/Bicheno,Bicheno,148.300003,-41.869999
Australia/Tasmania/Bothwell,Bothwell,147.0,-42.380001
Australia/Tasmania/Bronte,Bronte,146.483337,-42.139999
Australia/Tasmania/Burnie,Burnie,145.933334,-41.080002
Australia/Tasmania/Bushy Park,Bushy Park,146.899994,-42.709999
Australia/Tasmania/Butlers Gorge,Butlers Gorge,146.266663,-42.279999
Australia/Tasmania/Cambridge,Cambridge,147.483337,-42.833332
Australia/Tasmania/Cethana,Cethana,146.100006,-41.450001
Australia/Tasmania/Christmas Hills,Christmas Hills,144.75,-40.93
Australia/Tasmania/Cressy,Cressy,147.066666,-41.720001
Australia/Tasmania/Currie,Currie,143.850006,-39.939999
Australia/Tasmania/Deal Island,Deal Island,147.316666,-39.48
Australia/Tasmania/Devonport,Devonport,146.433334,-41.166668
Australia/Tasmania/Dunalley,Dunalley,148.0,-43.25
Australia/Tasmania/Evandale,Evandale,147.199997,-41.540001
Australia/Tasmania/Fitzgerald,Fitzgerald,146.600006,-42.759998
Australia/Tasmania/Flinders Island,Flinders Island,148.0,-40.099998
Australia/Tasmania/Forest,Forest,145.28334,-40.759998
Australia/Tasmania/George Town,George Town,146.78334,-41.060001
Australia/Tasmania/Goshen,Goshen,148.350006,-40.990002
Australia/Tasmania/Hadspen,Hadspen,147.149994,-41.470001
Australia/Tasmania/Henrietta,Henrietta,145.71666,-41.0
Australia/Tasmania/Hobart,Hobart,147.550003,-42.833332
Australia/Tasmania/Hythe,Hythe,146.96666,-43.419998
Australia/Tasmania/Kellatier,Kellatier,145.566666,-41.09
Australia/Tasmania/King Island,King Island,143.899994,-39.883335
Australia/Tasmania/Lake Leake,Lake Leake,147.78334,-42.009998
Australia/Tasmania/Latrobe,Latrobe,146.366669,-41.18
Australia/Tasmania/Lauderdale,Lauderdale,147.5,-42.84
Australia/Tasmania/Launceston,Launceston,147.21666,-41.549999
Australia/Tasmania/Lucaston,Lucaston,147.066666,-42.990002
Australia/Tasmania/Lune River,Lune River,146.866669,-43.419998
Australia/Tasmania/Maatsuyker Island,Maatsuyker Island,146.266663,-43.66
Australia/Tasmania/Marrawah,Marrawah,144.699997,-40.91
Australia/Tasmania/Miena,Miena,146.71666,-41.98
Australia/Tasmania/New Norfolk,New Norfolk,147.066666,-42.779999
Australia/Tasmania/Nubeena,Nubeena,147.816666,-43.169998
Australia/Tasmania/Oatlands,Oatlands,147.366669,-42.299999
Australia/Tasmania/Orford,Orford,147.866669,-42.549999
Australia/Tasmania/Pillinger,Pillinger,145.166672,-42.200001
Australia/Tasmania/Poatina,Poatina,146.983337,-41.790001
Australia/Tasmania/Port Sorell,Port Sorell,146.350006,-41.209999
Australia/Tasmania/Queenstown,Queenstown,145.53334,-42.099998
Australia/Tasmania/Risdon,Risdon,147.316666,-42.830002
Australia/Tasmania/Saint Leonards,Saint Leonards,147.199997,-41.5
Australia/Tasmania/Sandfly,Sandfly,147.316666,-42.889999
Australia/Tasmania/Savage River,Savage River,145.199997,-41.490002
Australia/Tasmania/Scottsdale,Scottsdale,147.483337,-41.169998
Australia/Tasmania/Sheffield,Sheffield,146.316666,-41.380001
Australia/Tasmania/Smithton,Smithton,145.100006,-40.849998
Australia/Tasmania/South Arm,South Arm,147.233337,-42.919998
Australia/Tasmania/Spreyton,Spreyton,146.366669,-41.18
Australia/Tasmania/St. Helens,St. Helens,148.25,-41.32
Australia/Tasmania/Stanley,Stanley,145.28334,-40.766666
Australia/Tasmania/Stieglitz,Stieglitz,148.266663,-41.450001
Australia/Tasmania/Strathgordon,Strathgordon,146.03334,-42.77
Australia/Tasmania/Swansea,Swansea,148.066666,-42.130001
Australia/Tasmania/Waddamana,Waddamana,146.75,-42.049999
Australia/Tasmania/Waratah,Waratah,145.516663,-41.450001
Australia/Tasmania/Whitemark,Whitemark,148.0,-40.09
Australia/Tasmania/Wynyard,Wynyard,145.71666,-41.016666
Australia/Tasmania/Zeehan,Zeehan,145.316666,-41.880001
Australia/Victoria/Aireys Inlet,Aireys Inlet,143.96666,-38.529999
Australia/Victoria/Allestree,Allestree,141.600006,-38.389999
Australia/Victoria/Altona,Altona,144.75,-37.860001
Australia/Victoria/Ararat,Ararat,142.949997,-37.279999
Australia/Victoria/Ascot Vale,Ascot Vale,144.866669,-37.779999
Australia/Victoria/Avenel,Avenel,145.166672,-36.889999
Australia/Victoria/Bairnsdale,Bairnsdale,147.616669,-37.82
Australia/Victoria/Ballan,Ballan,144.199997,-37.599998
Australia/Victoria/Bandiana,Bandiana,146.949997,-36.080002
Australia/Victoria/Barongarook,Barongarook,143.600006,-38.389999
Australia/Victoria/Beechworth,Beechworth,146.71666,-36.380001
Australia/Victoria/Belgrave South,Belgrave South,145.100006,-38.029999
Australia/Victoria/Bemm River,Bemm River,149.266663,-37.799999
Australia/Victoria/Benalla,Benalla,145.96666,-36.549999
Australia/Victoria/Bendigo,Bendigo,144.266663,-36.75
Australia/Victoria/Beulah,Beulah,142.416672,-35.939999
Australia/Victoria/Bittern,Bittern,145.21666,-38.380001
Australia/Victoria/Black Rock North,Black Rock North,145.016663,-37.970001
Australia/Victoria/Bogong,Bogong,147.21666,-36.799999
Australia/Victoria/Bonegilla,Bonegilla,147.0,-36.130001
