Key,City,Region,Longitude,Latitude
Afghanistan/'Alaqahdari Dishu,'Alaqahdari Dishu,Asia,63.298019,30.43206
Afghanistan/Aibak,Aibak,Asia,68.015511,36.264679
Afghanistan/Anar Darah,Anar Darah,Asia,61.653969,32.758701
Afghanistan/Andkhoy,Andkhoy,Asia,65.123756,36.95293
Afghanistan/Arghestan,Arghestan,Asia,66.489258,31.559811
Afghanistan/Art Khwajah,Art Khwajah,Asia,69.479584,37.085709
Afghanistan/Asadabad,Asadabad,Asia,71.146973,34.873112
Afghanistan/Ashkasham,Ashkasham,Asia,71.533333,36.683331
Afghanistan/Asmar,Asmar,Asia,71.358093,35.033329
Afghanistan/Baghlan,Baghlan,Asia,68.70829,36.13068
Afghanistan/Balkh,Balkh,Asia,66.897202,36.756351
Afghanistan/Bamyan,Bamyan,Asia,67.827339,34.82156
Afghanistan/Baraki Barak,Baraki Barak,Asia,68.949203,33.967442
Afghanistan/Basawul,Basawul,Asia,70.872177,34.24749
Afghanistan/Bazarak,Bazarak,Asia,69.51519,35.31292
Afghanistan/Chaghcharan,Chaghcharan,Asia,65.250938,34.51952
Afghanistan/Chahar Burj,Chahar Burj,Asia,62.19165,34.244751
Afghanistan/Charikar,Charikar,Asia,69.26667,34.950001
Afghanistan/Chiras,Chiras,Asia,65.982338,35.41674
Afghanistan/Cool Urhajó,Cool Urhajó,Asia,67.345161,34.26545
Afghanistan/Dadshan,Dadshan,Asia,62.43626,34.242031
Afghanistan/Darwazkay,Darwazkay,Asia,71.047577,35.024521
Afghanistan/Darzab,Darzab,Asia,65.378281,35.97744
Afghanistan/Dasht-e Archi,Dasht-e Archi,Asia,69.166672,37.133331
Afghanistan/Deri Mila,Deri Mila,Asia,70.060669,33.69471
Afghanistan/Farah,Farah,Asia,62.099998,32.400002
Afghanistan/Farkhar,Farkhar,Asia,69.857826,36.57288
Afghanistan/Fayzabad,Fayzabad,Asia,70.580017,37.116638
Afghanistan/Gardez,Gardez,Asia,69.225922,33.597439
Afghanistan/Ghazni,Ghazni,Asia,68.416664,33.533333
Afghanistan/Ghormach,Ghormach,Asia,63.782639,35.730621
Afghanistan/Herat,Herat,Asia,62.233334,34.216667
Afghanistan/Hukumati Azrah,Hukumati Azrah,Asia,69.645729,34.17355
Afghanistan/Hukumati Dahanah-ye Ghori,Hukumati Dahanah-ye Ghori,Asia,68.488693,35.90617
Afghanistan/Imam Sahib,Imam Sahib,Asia,68.93644,37.188969
Afghanistan/Jabal Saraj,Jabal Saraj,Asia,69.237778,35.118328
Afghanistan/Jalalabad,Jalalabad,Asia,70.5,34.400002
Afghanistan/Jurm,Jurm,Asia,70.834213,36.864769
Afghanistan/Kabul,Kabul,Asia,69.216667,34.549999
Afghanistan/Kafir Qala,Kafir Qala,Asia,61.066669,34.666672
Afghanistan/Kandahar,Kandahar,Asia,65.849998,31.5
Afghanistan/Karukh,Karukh,Asia,62.5863,34.481079
Afghanistan/Khanabad,Khanabad,Asia,69.115562,36.682499
Afghanistan/Khandud,Khandud,Asia,72.318001,36.951271
Afghanistan/Kharbuti,Kharbuti,Asia,66.58268,31.111
Afghanistan/Khash,Khash,Asia,62.79055,31.52919
Afghanistan/Khost,Khost,Asia,69.92041,33.339512
Afghanistan/Khulm,Khulm,Asia,67.698257,36.697361
Afghanistan/Kondoz,Kondoz,Asia,68.900002,36.683334
Afghanistan/Kuhsan,Kuhsan,Asia,61.197781,34.653889
Afghanistan/Kushk,Kushk,Asia,61.952209,33.29565
Afghanistan/Lab-Sar,Lab-Sar,Asia,66.83799,36.02634
Afghanistan/Larkird,Larkird,Asia,66.664093,35.489361
Afghanistan/Lashkar Gah,Lashkar Gah,Asia,64.371613,31.593821
Afghanistan/Markaz-e Hukumat-e Darweshan,Markaz-e Hukumat-e Darweshan,Asia,64.193398,31.13232
Afghanistan/Markaz-e Woluswali-ye Achin,Markaz-e Woluswali-ye Achin,Asia,70.707779,34.125832
Afghanistan/Maydanshakhr,Maydanshakhr,Asia,68.86618,34.395611
Afghanistan/Maymana,Maymana,Asia,64.783607,35.921391
Afghanistan/Mazar-E-Sharif,Mazar-E-Sharif,Asia,67.216667,36.700001
Afghanistan/Mehtar Lam,Mehtar Lam,Asia,70.209442,34.671391
Afghanistan/Mir Bachah Kot,Mir Bachah Kot,Asia,69.118988,34.749989
Afghanistan/Mirabad,Mirabad,Asia,61.838299,30.436239
Afghanistan/Mulkanah,Mulkanah,Asia,71.061127,34.9459
Afghanistan/Munai,Munai,Asia,71.258369,34.981209
Afghanistan/Nahrin,Nahrin,Asia,69.13343,36.064899
Afghanistan/Paghman,Paghman,Asia,68.950912,34.587872
Afghanistan/Panjab,Panjab,Asia,67.02327,34.387951
Afghanistan/Parun,Parun,Asia,70.922607,35.420639
Afghanistan/Pul-e 'Alam,Pul-e 'Alam,Asia,69.022743,33.995289
Afghanistan/Pul-e Khumri,Pul-e Khumri,Asia,68.715118,35.94458
Afghanistan/Qal'ah-ye Shahr,Qal'ah-ye Shahr,Asia,65.567596,35.547291
Afghanistan/Qala i Naw,Qala i Naw,Asia,63.12891,34.98735
Afghanistan/Qalat,Qalat,Asia,66.908333,32.105751
Afghanistan/Qarah Bagh,Qarah Bagh,Asia,61.77589,34.940231
Afghanistan/Qarawul,Qarawul,Asia,68.780197,37.219589
Afghanistan/Qarchi Gak,Qarchi Gak,Asia,66.78891,37.039989
Afghanistan/Qarqin,Qarqin,Asia,66.043579,37.41853
Afghanistan/Rudbar,Rudbar,Asia,62.599998,30.15
Afghanistan/Rustaq,Rustaq,Asia,69.830452,37.126041
Afghanistan/Sang-e Charak,Sang-e Charak,Asia,66.436943,35.84972
Afghanistan/Sangin,Sangin,Asia,64.835899,32.07275
Afghanistan/Sar-e Pul,Sar-e Pul,Asia,65.932487,36.215439
Afghanistan/Shahrak,Shahrak,Asia,64.305199,34.10738
Afghanistan/Sharan,Sharan,Asia,68.730453,33.175678
Afghanistan/Shibirghan,Shibirghan,Asia,65.752899,36.667568
Afghanistan/Shindand,Shindand,Asia,62.1474,33.30294
Afghanistan/Sidqabad,Sidqabad,Asia,69.35112,35.02298
Afghanistan/Tagab,Tagab,Asia,69.64917,34.855011
Afghanistan/Tagaw-Bay,Tagaw-Bay,Asia,66.061638,35.699409
Afghanistan/Tareen,Tareen,Asia,65.878059,32.629978
Afghanistan/Tir Pul,Tir Pul,Asia,61.268951,34.594311
Afghanistan/Tukzar,Tukzar,Asia,66.421318,35.948311
Afghanistan/Uruzgan,Uruzgan,Asia,66.63253,32.92775
Afghanistan/Yangi Qal'ah,Yangi Qal'ah,Asia,69.611313,37.465721
Afghanistan/Zarah Sharan,Zarah Sharan,Asia,68.79213,33.146412
Afghanistan/Zaranj,Zaranj,Asia,61.860371,30.95962
Afghanistan/Zarghun Shahr,Zarghun Shahr,Asia,68.445732,32.84734
Afghanistan/Zindah Jan,Zindah Jan,Asia,61.74675,34.34264
Albania/Durres,Durres,Europe,19.450001,41.299999
Algeria/'Ain El Turk,'Ain El Turk,Africa,-0.8,35.733334
Algeria/'Aïn Abid,'Aïn Abid,Africa,6.94333,36.231941
Algeria/'Aïn Benian,'Aïn Benian,Africa,2.92185,36.802769
Algeria/'Aïn Boucif,'Aïn Boucif,Africa,3.1585,35.891232
Algeria/'Aïn Deheb,'Aïn Deheb,Africa,1.54698,34.842178
Algeria/'Aïn Merane,'Aïn Merane,Africa,0.97037,36.162769
Algeria/'Aïn Temouchent,'Aïn Temouchent,Africa,-1.14037,35.297489
Algeria/'Aïn el Bell,'Aïn el Bell,Africa,3.22475,34.3438
Algeria/'Aïn el Berd,'Aïn el Berd,Africa,-0.51278,35.363949
Algeria/'Aïn el Hadjar,'Aïn el Hadjar,Africa,0.14528,34.758461
Algeria/'Aïn el Hammam,'Aïn el Hammam,Africa,4.30619,36.564709
Algeria/'Aïn el Melh,'Aïn el Melh,Africa,4.16383,34.841461
Algeria/Ababsa,Ababsa,Africa,0.72334,35.70697
Algeria/Abou el Hassan,Abou el Hassan,Africa,1.19616,36.416569
Algeria/Adrar,Adrar,Africa,-0.29388,27.87429
Algeria/Aflou,Aflou,Africa,2.116667,34.116665
Algeria/Ain Oussera,Ain Oussera,Africa,2.883333,35.516666
Algeria/Ain el Hadjel,Ain el Hadjel,Africa,3.88153,35.670029
Algeria/Akbou,Akbou,Africa,4.53494,36.4575
Algeria/Algiers,Algiers,Africa,3.25,36.716667
Algeria/Amizour,Amizour,Africa,4.90131,36.640221
Algeria/Ammi Moussa,Ammi Moussa,Africa,1.11143,35.867809
Algeria/Annaba,Annaba,Africa,7.816667,36.833332
Algeria/Aoulef,Aoulef,Africa,1.083333,26.966667
Algeria/Arbatache,Arbatache,Africa,3.37127,36.63773
Algeria/Arhribs,Arhribs,Africa,4.31158,36.79361
Algeria/Arris,Arris,Africa,6.34706,35.258808
Algeria/Azazga,Azazga,Africa,4.37222,36.74472
Algeria/Azzaba,Azzaba,Africa,7.10528,36.739441
Algeria/Aïn Arnat,Aïn Arnat,Africa,5.31347,36.186829
Algeria/Aïn Bessem,Aïn Bessem,Africa,3.67319,36.293331
Algeria/Aïn Beïda,Aïn Beïda,Africa,7.39278,35.796391
Algeria/Aïn Defla,Aïn Defla,Africa,1.9679,36.264061
Algeria/Aïn Fakroun,Aïn Fakroun,Africa,6.87374,35.971081
Algeria/Aïn Kercha,Aïn Kercha,Africa,6.69528,35.924721
Algeria/Aïn Sefra,Aïn Sefra,Africa,-0.58333,32.75
Algeria/Aïn Sidi Harrat,Aïn Sidi Harrat,Africa,0.71261,35.701118
Algeria/Aïn Smara,Aïn Smara,Africa,6.50135,36.267399
Algeria/Aïn Taya,Aïn Taya,Africa,3.28694,36.793331
Algeria/Aïn Touta,Aïn Touta,Africa,5.90001,35.376751
Algeria/Aïn el Bya,Aïn el Bya,Africa,-0.30178,35.80389
Algeria/Babor-Ville,Babor-Ville,Africa,5.5393,36.489941
Algeria/Baraki,Baraki,Africa,3.09606,36.66655
Algeria/Barbacha,Barbacha,Africa,4.96667,36.566669
Algeria/Barika,Barika,Africa,5.36584,35.389011
Algeria/Batna,Batna,Africa,6.183333,35.549999
Algeria/Bechar,Bechar,Africa,-2.25,31.65
Algeria/Ben Mehidi,Ben Mehidi,Africa,7.9064,36.769669
Algeria/Beni Amrane,Beni Amrane,Africa,3.59115,36.66774
Algeria/Beni Douala,Beni Douala,Africa,4.08282,36.619541
Algeria/Beni Mered,Beni Mered,Africa,2.86131,36.523891
Algeria/Beni Mester,Beni Mester,Africa,-1.42319,34.870449
Algeria/Beni Saf,Beni Saf,Africa,-1.38226,35.300991
Algeria/Bensekrane,Bensekrane,Africa,-1.22431,35.07465
Algeria/Berrahal,Berrahal,Africa,7.45333,36.835281
Algeria/Berriane,Berriane,Africa,3.7669,32.826481
Algeria/Berrouaghia,Berrouaghia,Africa,2.91085,36.135159
Algeria/Besbes,Besbes,Africa,7.84722,36.702221
Algeria/Bir el Ater,Bir el Ater,Africa,8.06024,34.744881
Algeria/Bir el Djir,Bir el Djir,Africa,-0.545,35.720001
Algeria/Birine,Birine,Africa,3.225,35.634998
Algeria/Birkhadem,Birkhadem,Africa,3.05002,36.714989
Algeria/Biskra,Biskra,Africa,5.733333,34.799999
Algeria/Blida,Blida,Africa,2.816667,36.5
Algeria/Boghni,Boghni,Africa,3.95306,36.542221
Algeria/Bordj Ghdir,Bordj Ghdir,Africa,4.89806,35.901112
Algeria/Bordj Zemoura,Bordj Zemoura,Africa,4.85668,36.27462
Algeria/Bordj el Kiffan,Bordj el Kiffan,Africa,3.19248,36.748711
Algeria/Bou Adjem,Bou Adjem,Africa,5.066667,36.716667
Algeria/Bou Hanifia el Hamamat,Bou Hanifia el Hamamat,Africa,-0.05037,35.314732
Algeria/Bou Ismaïl,Bou Ismaïl,Africa,2.69007,36.64262
Algeria/Bou Tlelis,Bou Tlelis,Africa,-0.8996,35.57272
Algeria/Boudjima,Boudjima,Africa,4.15187,36.802181
Algeria/Boudouaou,Boudouaou,Africa,3.40995,36.727348
Algeria/Boufarik,Boufarik,Africa,2.91214,36.57412
Algeria/Bougaa,Bougaa,Africa,5.08843,36.332932
Algeria/Bougara,Bougara,Africa,3.081,36.541779
Algeria/Bouinan,Bouinan,Africa,2.99194,36.53167
Algeria/Boukadir,Boukadir,Africa,1.12602,36.066292
Algeria/Boumahra Ahmed,Boumahra Ahmed,Africa,7.51389,36.458328
Algeria/Boumerdas,Boumerdas,Africa,3.47717,36.766392
Algeria/Bouïra,Bouïra,Africa,3.902,36.374889
Algeria/Boû Arfa,Boû Arfa,Africa,2.81464,36.462978
Algeria/Brezina,Brezina,Africa,1.26082,33.098919
Algeria/Chabet el Ameur,Chabet el Ameur,Africa,3.69474,36.637089
Algeria/Charef,Charef,Africa,2.79503,34.620979
Algeria/Cheaïbia,Cheaïbia,Africa,0.71707,35.713589
Algeria/Chebli,Chebli,Africa,3.00917,36.577221
Algeria/Chelghoum el Aïd,Chelghoum el Aïd,Africa,6.16651,36.162861
Algeria/Chemini,Chemini,Africa,4.61667,36.599998
Algeria/Cheraga,Cheraga,Africa,2.95924,36.76775
Algeria/Cheria,Cheria,Africa,7.75194,35.27306
Algeria/Chetouane,Chetouane,Africa,-1.29512,34.921291
Algeria/Chiffa,Chiffa,Africa,2.73873,36.462929
Algeria/Chlef,Chlef,Africa,1.33452,36.165249
Algeria/Chorfa,Chorfa,Africa,4.32636,36.365051
Algeria/Constantine,Constantine,Africa,6.616667,36.283333
Algeria/Dar Chioukh,Dar Chioukh,Africa,3.48543,34.896381
Algeria/Dar el Beïda,Dar el Beïda,Africa,3.2125,36.713329
Algeria/Debila,Debila,Africa,6.95,33.51667
Algeria/Dellys,Dellys,Africa,3.91311,36.91716
Algeria/Didouche Mourad,Didouche Mourad,Africa,6.63639,36.452499
Algeria/Djamaa,Djamaa,Africa,5.99306,33.533878
Algeria/Djanet,Djanet,Africa,9.466666,24.549999
Algeria/Djebilet Rosfa,Djebilet Rosfa,Africa,0.83496,34.86375
Algeria/Djidiouia,Djidiouia,Africa,0.82871,35.92989
Algeria/Douera,Douera,Africa,2.94444,36.669998
Algeria/Draa Ben Khedda,Draa Ben Khedda,Africa,3.96223,36.73436
Algeria/Draa el Mizan,Draa el Mizan,Africa,3.8334,36.536282
Algeria/Drean,Drean,Africa,7.75111,36.684818
Algeria/Ech Chettia,Ech Chettia,Africa,1.25538,36.195911
Algeria/El Abadia,El Abadia,Africa,1.68609,36.269508
Algeria/El Abiodh Sidi Cheikh,El Abiodh Sidi Cheikh,Africa,0.54839,32.893002
Algeria/El Achir,El Achir,Africa,4.62744,36.063862
Algeria/El Affroun,El Affroun,Africa,2.62528,36.4701
Algeria/El Amria,El Amria,Africa,-1.01577,35.524391
Algeria/El Aouinet,El Aouinet,Africa,7.88672,35.866909
Algeria/El Attaf,El Attaf,Africa,1.67187,36.22393
Algeria/El Bayadh,El Bayadh,Africa,1.01927,33.683182
Algeria/El Eulma,El Eulma,Africa,5.69016,36.152809
Algeria/El Golea,El Golea,Africa,2.866667,30.566668
Algeria/El Hadjar,El Hadjar,Africa,7.73684,36.803768
Algeria/El Hadjira,El Hadjira,Africa,5.51259,32.613361
Algeria/El Idrissia,El Idrissia,Africa,2.52749,34.445419
Algeria/El Kala,El Kala,Africa,8.44333,36.895561
Algeria/El Kerma,El Kerma,Africa,-0.533333,35.549999
Algeria/El Kseur,El Kseur,Africa,4.8555,36.67942
Algeria/El Malah,El Malah,Africa,-1.09238,35.39138
Algeria/El Oued,El Oued,Africa,6.86319,33.356079
Algeria/El Tarf,El Tarf,Africa,8.31377,36.7672
Algeria/Es Senia,Es Senia,Africa,-0.62397,35.647789
Algeria/Feraoun,Feraoun,Africa,4.85454,36.560398
Algeria/Freha,Freha,Africa,4.3155,36.752338
Algeria/Frenda,Frenda,Africa,1.04945,35.065441
Algeria/Ghardaia,Ghardaia,Africa,3.67347,32.49094
Algeria/Hadjout,Hadjout,Africa,2.41382,36.512569
Algeria/Hamaguir,Hamaguir,Africa,-3.05,30.9
Algeria/Hamma Bouziane,Hamma Bouziane,Africa,6.59603,36.412048
Algeria/Hammam Bou Hadjar,Hammam Bou Hadjar,Africa,-0.96778,35.378891
Algeria/Hammamet,Hammamet,Africa,7.95184,35.44862
Algeria/Hassi Messaoud,Hassi Messaoud,Africa,6.15,31.683332
Algeria/Hennaya,Hennaya,Africa,-1.36806,34.951389
Algeria/Héliopolis,Héliopolis,Africa,7.44278,36.503609
Algeria/I-n-Amguel,I-n-Amguel,Africa,5.15,23.799999
Algeria/I-n-Eker,I-n-Eker,Africa,5.116667,24.1
Algeria/I-n-Salah,I-n-Salah,Africa,2.516667,27.25
Algeria/Ighram,Ighram,Africa,4.50532,36.462952
Algeria/Illizi,Illizi,Africa,8.416667,26.5
Algeria/Isser,Isser,Africa,3.66924,36.71859
Algeria/Jijel,Jijel,Africa,5.783333,36.833332
Algeria/Kerkera,Kerkera,Africa,6.58556,36.929169
Algeria/Khemis el Khechna,Khemis el Khechna,Africa,3.3308,36.649971
Algeria/Khenchela,Khenchela,Africa,7.14333,35.435829
Algeria/Kolea,Kolea,Africa,2.76845,36.638882
Algeria/Ksar Chellala,Ksar Chellala,Africa,2.31889,35.212219
Algeria/Ksar el Boukhari,Ksar el Boukhari,Africa,2.74905,35.888889
Algeria/L'Arbaa Naït Irathen,L'Arbaa Naït Irathen,Africa,4.19864,36.631119
Algeria/Laghouat,Laghouat,Africa,2.933333,33.766666
Algeria/Lakhdaria,Lakhdaria,Africa,3.5933,36.564629
Algeria/Larbaâ,Larbaâ,Africa,3.15434,36.564709
Algeria/M'Sila,M'Sila,Africa,4.54194,35.70583
Algeria/Makouda,Makouda,Africa,4.06273,36.785671
Algeria/Mansourah,Mansourah,Africa,4.45192,36.08725
Algeria/Mansoûra,Mansoûra,Africa,-1.33935,34.86158
Algeria/Mascara,Mascara,Africa,0.14027,35.396641
Algeria/Mazouna,Mazouna,Africa,0.89865,36.122318
Algeria/Meftah,Meftah,Africa,3.22248,36.620399
Algeria/Megarine,Megarine,Africa,6.08695,33.191952
Algeria/Mehdia,Mehdia,Africa,1.75714,35.43058
Algeria/Mekla,Mekla,Africa,4.26378,36.681782
Algeria/Melouza,Melouza,Africa,4.18665,35.979988
Algeria/Meridja Tahtania,Meridja Tahtania,Africa,-2.95,31.566668
Algeria/Merouana,Merouana,Africa,5.91186,35.631062
Algeria/Mers el Kebir,Mers el Kebir,Africa,-0.7081,35.727901
Algeria/Meskiana,Meskiana,Africa,7.66606,35.630581
Algeria/Messaad,Messaad,Africa,3.50309,34.154289
Algeria/Metlili Chaamba,Metlili Chaamba,Africa,3.63333,32.26667
Algeria/Mila,Mila,Africa,6.26444,36.450279
Algeria/Mouzaïa,Mouzaïa,Africa,2.68991,36.466949
Algeria/Médéa,Médéa,Africa,2.75393,36.264172
Algeria/Naama,Naama,Africa,-0.31667,33.26667
Algeria/Naciria,Naciria,Africa,3.83163,36.74625
Algeria/Nedroma,Nedroma,Africa,-1.74799,35.013611
Algeria/Oran,Oran,Africa,0.6,35.633335
Algeria/Ouallene,Ouallene,Africa,1.233333,24.6
Algeria/Ouargla,Ouargla,Africa,5.4,31.916666
Algeria/Oued Rhiou,Oued Rhiou,Africa,0.91896,35.961239
Algeria/Oued Sly,Oued Sly,Africa,1.19949,36.101238
Algeria/Oued el Abtal,Oued el Abtal,Africa,0.68778,35.455952
Algeria/Oued el Alleug,Oued el Alleug,Africa,2.79028,36.555279
Algeria/Ouled Kouadria,Ouled Kouadria,Africa,3.4,36.75
Algeria/Ouled Mimoun,Ouled Mimoun,Africa,-1.03394,34.90472
Algeria/Ouled Moussa,Ouled Moussa,Africa,3.36661,36.683941
Algeria/Oum el Bouaghi,Oum el Bouaghi,Africa,7.11353,35.875408
Algeria/Oumache,Oumache,Africa,5.68092,34.692921
Algeria/Reggane,Reggane,Africa,0.283333,26.683332
Algeria/Reghaïa,Reghaïa,Africa,3.34018,36.73587
Algeria/Reguiba,Reguiba,Africa,6.70326,33.563911
Algeria/Relizane,Relizane,Africa,0.55599,35.737339
Algeria/Robbah,Robbah,Africa,6.90984,33.279659
Algeria/Rouachdia,Rouachdia,Africa,0.73055,35.7085
Algeria/Rouached,Rouached,Africa,6.04267,36.457741
Algeria/Rouiba,Rouiba,Africa,3.28079,36.738289
Algeria/Rouissat,Rouissat,Africa,5.35018,31.924271
Algeria/Râs el Aïoun,Râs el Aïoun,Africa,5.6453,35.67384
Algeria/Râs el Oued,Râs el Oued,Africa,5.03107,35.944099
Algeria/Salah Bey,Salah Bey,Africa,5.29053,35.8545
Algeria/Saoula,Saoula,Africa,3.02462,36.704559
Algeria/Sebdou,Sebdou,Africa,-1.33143,34.637032
Algeria/Seddouk,Seddouk,Africa,4.68611,36.547218
Algeria/Sedrata,Sedrata,Africa,7.53376,36.128681
Algeria/Sfizef,Sfizef,Africa,-0.24435,35.234638
Algeria/Sidi Abdelli,Sidi Abdelli,Africa,-1.13706,35.06937
Algeria/Sidi Akkacha,Sidi Akkacha,Africa,1.30258,36.464722
Algeria/Sidi Aïssa,Sidi Aïssa,Africa,3.77236,35.885479
Algeria/Sidi Harrat Benaissa,Sidi Harrat Benaissa,Africa,0.71658,35.70784
Algeria/Sidi Khaled,Sidi Khaled,Africa,4.98785,34.387001
Algeria/Sidi Moussa,Sidi Moussa,Africa,3.08783,36.606369
Algeria/Sidi Mérouane,Sidi Mérouane,Africa,6.26111,36.520561
Algeria/Sidi Okba,Sidi Okba,Africa,5.89833,34.745121
Algeria/Sidi ech Chahmi,Sidi ech Chahmi,Africa,-0.52168,35.659031
Algeria/Sig,Sig,Africa,-0.19369,35.52832
Algeria/Skikda,Skikda,Africa,6.95,36.933334
Algeria/Smala,Smala,Africa,0.75437,35.716518
Algeria/Sougueur,Sougueur,Africa,1.49612,35.18568
Algeria/Souk Ahras,Souk Ahras,Africa,7.95111,36.286388
Algeria/Souma,Souma,Africa,2.90528,36.51833
Algeria/Sour el Ghozlane,Sour el Ghozlane,Africa,3.69123,36.147659
Algeria/Sraoulia,Sraoulia,Africa,0.71285,35.71434
Algeria/Tadmaït,Tadmaït,Africa,3.90045,36.744129
Algeria/Tamalous,Tamalous,Africa,6.64018,36.837631
Algeria/Tamanrasset,Tamanrasset,Africa,5.516667,22.783333
Algeria/Tazoult-Lambese,Tazoult-Lambese,Africa,6.26074,35.481709
Algeria/Tebesbest,Tebesbest,Africa,6.08333,33.116669
Algeria/Telerghma,Telerghma,Africa,6.366667,36.116665
Algeria/Thenia,Thenia,Africa,3.55665,36.725441
Algeria/Theniet el Had,Theniet el Had,Africa,2.02806,35.871109
Algeria/Tiaret,Tiaret,Africa,1.31699,35.371029
Algeria/Timimoun,Timimoun,Africa,0.283333,29.233334
Algeria/Timizart,Timizart,Africa,4.26667,36.799999
Algeria/Tindouf,Tindouf,Africa,-8.166667,27.700001
Algeria/Tipasa,Tipasa,Africa,2.4475,36.589722
Algeria/Tirmitine,Tirmitine,Africa,3.98143,36.653931
Algeria/Tissemsilt,Tissemsilt,Africa,1.81081,35.60722
Algeria/Tizi Gheniff,Tizi Gheniff,Africa,3.77445,36.58839
Algeria/Tizi Ouzou,Tizi Ouzou,Africa,4.04591,36.711819
Algeria/Tizi Rached,Tizi Rached,Africa,4.19176,36.671761
Algeria/Tizi-n-Tleta,Tizi-n-Tleta,Africa,4.05712,36.545689
Algeria/Tlemcen,Tlemcen,Africa,-1.466667,35.016666
Algeria/Tolga,Tolga,Africa,5.37845,34.72224
Algeria/Touggourt,Touggourt,Africa,6.05796,33.10527
Algeria/Tébessa,Tébessa,Africa,8.12417,35.404171
Algeria/Zaouia Benameur,Zaouia Benameur,Africa,0.72939,35.710491
Algeria/Zaouia Sidi Moussa,Zaouia Sidi Moussa,Africa,6.833333,28.133333
Algeria/Zemoura,Zemoura,Africa,0.75509,35.722511
Algeria/Zeralda,Zeralda,Africa,2.84244,36.711689
Algeria/Zeribet el Oued,Zeribet el Oued,Africa,6.51109,34.682838
Algeria/el hed,el hed,Africa,4.77361,36.650002
American Samoa/Pago Pago,Pago Pago,Oceania,-170.71666,-14.334
Angola/Benguela,Benguela,Africa,13.40547,-12.57626
Angola/Cabinda,Cabinda,Africa,12.2,-5.583333
Angola/Caconda,Caconda,Africa,15.06667,-13.73333
Angola/Caluquembe,Caluquembe,Africa,14.68333,-13.78333
Angola/Camabatela,Camabatela,Africa,15.37495,-8.18812
Angola/Camacupa,Camacupa,Africa,17.48333,-12.01667
Angola/Carvalho,Carvalho,Africa,20.416666,-9.683333
Angola/Catabola,Catabola,Africa,17.283331,-12.15
Angola/Catumbela,Catumbela,Africa,13.54677,-12.43002
Angola/Caxito,Caxito,Africa,13.66425,-8.57848
Angola/Cazaji,Cazaji,Africa,20.701481,-11.06715
Angola/Caála,Caála,Africa,15.56056,-12.8525
Angola/Dundo,Dundo,Africa,20.833334,-7.366667
Angola/Lobito,Lobito,Africa,13.533334,-12.366667
Angola/Longonjo,Longonjo,Africa,15.25333,-12.90667
Angola/Luanda,Luanda,Africa,13.233334,-8.85
Angola/Luau,Luau,Africa,22.224661,-10.70727
Angola/Lucapa,Lucapa,Africa,20.744659,-8.41915
Angola/Lumeje,Lumeje,Africa,20.783331,-11.55
Angola/Luso,Luso,Africa,19.85,-11.75
Angola/Léua,Léua,Africa,20.450001,-11.65
Angola/Malange,Malange,Africa,16.333334,-9.516666
Angola/Mbanza Congo,Mbanza Congo,Africa,14.2401,-6.26703
Angola/Mocamedes,Mocamedes,Africa,12.15,-15.2
Angola/N'dalatando,N'dalatando,Africa,14.91162,-9.29782
Angola/Nova Lisboa,Nova Lisboa,Africa,15.75,-12.8
Angola/Nzeto,Nzeto,Africa,12.8666,-7.23116
Angola/Pereira De Ca,Pereira De Ca,Africa,15.666667,-17.049999
Angola/Quibala,Quibala,Africa,14.97995,-10.73366
Angola/Sa Da Bandeira,Sa Da Bandeira,Africa,13.566667,-14.916667
Angola/Serpa Pinto,Serpa Pinto,Africa,17.683332,-14.65
Angola/Silva Porto,Silva Porto,Africa,16.950001,-12.383333
Angola/Soyo,Soyo,Africa,12.36894,-6.1349
Angola/Sumbe,Sumbe,Africa,13.84371,-11.20605
Angola/Uíge,Uíge,Africa,15.06131,-7.60874
Angola/Waco-Kungo,Waco-Kungo,Africa,15.11719,-11.35669
Anguilla/Blowing Point Village,Blowing Point Village,Caribbean,-63.083328,18.16667
Anguilla/The Valley,The Valley,Caribbean,-63.116665,18.049999
Antarctica/Cape Denison,Cape Denison,Antarctica,142.666672,-67.0
Antarctica/Davis,Davis,Antarctica,77.966667,-68.583336
Antarctica/Deception Island,Deception Island,Antarctica,-60.566666,-62.983334
Antarctica/Esperanza,Esperanza,Antarctica,-56.983334,-63.400002
Antarctica/General San Martin,General San Martin,Antarctica,-67.01667,-68.183334
Antarctica/Islas Orcadas,Islas Orcadas,Antarctica,-44.716667,-60.75
Antarctica/Komsomolskaya,Komsomolskaya,Antarctica,97.48333,-74.083336
Antarctica/Little America,Little America,Antarctica,-162.199997,-78.183334
Antarctica/Mawson Station,Mawson Station,Antarctica,62.883335,-67.599998
Antarctica/McMurdo Sound,McMurdo Sound,Antarctica,166.96666,-77.866669
Antarctica/Mirnyy,Mirnyy,Antarctica,93.01667,-66.550003
Antarctica/Oasis,Oasis,Antarctica,100.716667,-66.300003
Antarctica/Pionerskaya,Pionerskaya,Antarctica,95.5,-69.73333
Antarctica/Sanae,Sanae,Antarctica,-2.35,-70.316666
Antarctica/Vostok 2,Vostok 2,Antarctica,106.866669,-78.449997
Antigua and Barbuda/Aberdeen,Aberdeen,Caribbean,-61.816669,17.066669
Antigua and Barbuda/All Saints,All Saints,Caribbean,-61.79303,17.06671
Antigua and Barbuda/Barnes Hill,Barnes Hill,Caribbean,-61.799999,17.15
Antigua and Barbuda/Burkes,Burkes,Caribbean,-61.76667,17.049999
Antigua and Barbuda/Codrington,Codrington,Caribbean,-61.783333,17.116667
Antigua and Barbuda/Jennings Village,Jennings Village,Caribbean,-61.865822,17.077789
Antigua and Barbuda/Jolly Harbour,Jolly Harbour,Caribbean,-61.886459,17.066219
Antigua and Barbuda/Mercers Creek,Mercers Creek,Caribbean,-61.73333,17.08333
Antigua and Barbuda/Mount William,Mount William,Caribbean,-61.799999,17.033331
Antigua and Barbuda/Pares,Pares,Caribbean,-61.75,17.08333
Antigua and Barbuda/Parham,Parham,Caribbean,-61.770458,17.096821
Antigua and Barbuda/Saint John's,Saint John's,Caribbean,-62.683334,17.299999
Antigua and Barbuda/Yorks,Yorks,Caribbean,-61.866669,17.08333
Argentina/28 de Noviembre,28 de Noviembre,South America,-72.213821,-51.5839
Argentina/Abra Pampa,Abra Pampa,South America,-65.696968,-22.72049
Argentina/Achiras,Achiras,South America,-64.993309,-33.175381
Argentina/Adelia María,Adelia María,South America,-64.020973,-33.631519
Argentina/Agua de Oro,Agua de Oro,South America,-64.300171,-31.06661
Argentina/Aguilares,Aguilares,South America,-65.614273,-27.4338
Argentina/Alba Posse,Alba Posse,South America,-54.682621,-27.56978
Argentina/Albardón,Albardón,South America,-68.525558,-31.43722
Argentina/Alberdi,Alberdi,South America,-58.233334,-26.200001
Argentina/Aldea San Antonio,Aldea San Antonio,South America,-58.703331,-32.62376
Argentina/Alderetes,Alderetes,South America,-65.133331,-26.816669
Argentina/Alejandro Roca,Alejandro Roca,South America,-63.718491,-33.353691
Argentina/Alejo Ledesma,Alejo Ledesma,South America,-62.623039,-33.60643
Argentina/Alferez San Martin,Alferez San Martin,South America,-62.333332,-38.683334
Argentina/Almafuerte,Almafuerte,South America,-55.39497,-27.50518
Argentina/Alpachiri,Alpachiri,South America,-63.774448,-37.377041
Argentina/Alta Gracia,Alta Gracia,South America,-64.428261,-31.65292
Argentina/Alta Italia,Alta Italia,South America,-64.11496,-35.3335
Argentina/Alto Río Senguer,Alto Río Senguer,South America,-70.819817,-45.04105
Argentina/Altos de Chipión,Altos de Chipión,South America,-62.337269,-30.9559
Argentina/Aluminé,Aluminé,South America,-70.919701,-39.236858
Argentina/Alvear,Alvear,South America,-56.55043,-29.09683
Argentina/Ancasti,Ancasti,South America,-65.50145,-28.812469
Argentina/Andacollo,Andacollo,South America,-70.669121,-37.179451
Argentina/Andalgala,Andalgala,South America,-66.333336,-27.6
Argentina/Anguil,Anguil,South America,-64.010246,-36.525669
Argentina/Antofagasta de la Sierra,Antofagasta de la Sierra,South America,-67.406357,-26.059401
Argentina/Apolinario Saravia,Apolinario Saravia,South America,-63.99535,-24.43276
Argentina/Aranguren,Aranguren,South America,-60.161072,-32.242519
Argentina/Arata,Arata,South America,-64.356209,-35.63895
Argentina/Arauco,Arauco,South America,-66.79438,-28.5805
Argentina/Arias,Arias,South America,-62.402721,-33.644112
Argentina/Aristóbulo del Valle,Aristóbulo del Valle,South America,-54.896259,-27.096251
Argentina/Armstrong,Armstrong,South America,-61.602219,-32.78215
Argentina/Arroyito,Arroyito,South America,-63.050018,-31.420219
Argentina/Arroyo Cabral,Arroyo Cabral,South America,-63.40126,-32.491192
Argentina/Arroyo Seco,Arroyo Seco,South America,-60.508629,-33.154888
Argentina/Arroyo del Medio,Arroyo del Medio,South America,-55.416672,-27.700001
Argentina/Arrufó,Arrufó,South America,-61.728619,-30.232809
Argentina/Ataliva Roca,Ataliva Roca,South America,-64.283333,-37.01667
Argentina/Avellaneda,Avellaneda,South America,-59.65834,-29.117611
Argentina/Aviá Terai,Aviá Terai,South America,-60.729198,-26.68532
Argentina/Azara,Azara,South America,-55.677971,-28.0616
Argentina/Azul,Azul,South America,-59.833332,-36.733334
Argentina/Añatuya,Añatuya,South America,-62.834721,-28.46064
Argentina/Añelo,Añelo,South America,-68.788399,-38.354408
Argentina/Bahia Blanca,Bahia Blanca,South America,-62.166668,-38.733334
Argentina/Balnearia,Balnearia,South America,-62.667332,-31.008801
Argentina/Barrancas,Barrancas,South America,-69.916672,-36.816669
Argentina/Barranqueras,Barranqueras,South America,-58.935791,-27.48299
Argentina/Basail,Basail,South America,-59.299999,-27.866671
Argentina/Bella Italia,Bella Italia,South America,-61.423962,-31.27268
Argentina/Bella Vista,Bella Vista,South America,-65.303146,-27.03084
Argentina/Beltrán,Beltrán,South America,-64.060982,-27.82913
Argentina/Bernardo Larroudé,Bernardo Larroudé,South America,-63.582531,-35.02449
Argentina/Bernardo de Irigoyen,Bernardo de Irigoyen,South America,-53.645809,-26.255199
Argentina/Bernasconi,Bernasconi,South America,-63.742401,-37.904591
Argentina/Berrotarán,Berrotarán,South America,-64.388672,-32.451
Argentina/Bolívar,Bolívar,South America,-61.083328,-36.333328
Argentina/Bonpland,Bonpland,South America,-57.431461,-29.823971
Argentina/Bovril,Bovril,South America,-59.445122,-31.343109
Argentina/Brinkmann,Brinkmann,South America,-62.037418,-30.8659
Argentina/Buchardo,Buchardo,South America,-63.509201,-34.72263
Argentina/Buena Esperanza,Buena Esperanza,South America,-65.253799,-34.75647
Argentina/Buenos Aires,Buenos Aires,South America,-58.533333,-34.816666
Argentina/Burruyacú,Burruyacú,South America,-64.742058,-26.49918
Argentina/Buta Ranquil,Buta Ranquil,South America,-69.877129,-37.052219
Argentina/Cachí,Cachí,South America,-66.165192,-25.120331
Argentina/Cafayate,Cafayate,South America,-65.976143,-26.07295
Argentina/Caimancito,Caimancito,South America,-64.593697,-23.7407
Argentina/Calchaquí,Calchaquí,South America,-60.286961,-29.887671
Argentina/Caleta Olivia,Caleta Olivia,South America,-67.528137,-46.439289
Argentina/Caleufú,Caleufú,South America,-64.557777,-35.595589
Argentina/Calilegua,Calilegua,South America,-64.77002,-23.77368
Argentina/Calingasta,Calingasta,South America,-69.407829,-31.330839
Argentina/Camarones,Camarones,South America,-65.709938,-44.797089
Argentina/Camilo Aldao,Camilo Aldao,South America,-62.094528,-33.127449
Argentina/Campana,Campana,South America,-58.959141,-34.168739
Argentina/Campo Gallo,Campo Gallo,South America,-62.849998,-26.58333
Argentina/Campo Grande,Campo Grande,South America,-54.979771,-27.207701
Argentina/Campo Largo,Campo Largo,South America,-60.842152,-26.80077
Argentina/Campo Quijano,Campo Quijano,South America,-65.636559,-24.909821
Argentina/Campo Ramón,Campo Ramón,South America,-55.019009,-27.461081
Argentina/Campo Viera,Campo Viera,South America,-55.033329,-27.383329
Argentina/Canals,Canals,South America,-62.889271,-33.565418
Argentina/Candelaria,Candelaria,South America,-55.745361,-27.459499
Argentina/Capayán,Capayán,South America,-66.05024,-28.761049
Argentina/Capilla del Monte,Capilla del Monte,South America,-64.525146,-30.86088
Argentina/Capioví,Capioví,South America,-55.060841,-26.929979
Argentina/Capitán Bermúdez,Capitán Bermúdez,South America,-60.718521,-32.82262
Argentina/Capitán Solari,Capitán Solari,South America,-59.56089,-26.802151
Argentina/Carcarañá,Carcarañá,South America,-61.153309,-32.856789
Argentina/Cariló,Cariló,South America,-56.891331,-37.165241
Argentina/Carnerillo,Carnerillo,South America,-64.021751,-32.9137
Argentina/Carrilobo,Carrilobo,South America,-63.117161,-31.872959
Argentina/Caseros,Caseros,South America,-58.478722,-32.463249
Argentina/Castelli,Castelli,South America,-60.619469,-25.946791
Argentina/Castro Barros,Castro Barros,South America,-65.726959,-30.579519
Argentina/Catamarca,Catamarca,South America,-65.76667,-28.433332
Argentina/Cataratas del Iguazu,Cataratas del Iguazu,South America,-54.450001,-25.66667
Argentina/Catriel,Catriel,South America,-67.795601,-37.87907
Argentina/Catriló,Catriló,South America,-63.42168,-36.405979
Argentina/Caucete,Caucete,South America,-68.281052,-31.651791
Argentina/Cavanagh,Cavanagh,South America,-62.338879,-33.476059
Argentina/Cañada de Gómez,Cañada de Gómez,South America,-61.394932,-32.81636
Argentina/Cañada de Luque,Cañada de Luque,South America,-63.723759,-30.73341
Argentina/Ceibas,Ceibas,South America,-58.75,-33.433331
Argentina/Centenario,Centenario,South America,-68.131798,-38.829552
Argentina/Ceres,Ceres,South America,-61.950001,-29.883333
Argentina/Cerro Azul,Cerro Azul,South America,-55.496201,-27.633101
Argentina/Cerro Catedral,Cerro Catedral,South America,-71.500267,-41.213928
Argentina/Cerro Corá,Cerro Corá,South America,-55.608959,-27.5131
Argentina/Cervantes,Cervantes,South America,-67.383331,-39.049999
Argentina/Chacabuco,Chacabuco,South America,-60.473888,-34.64167
Argentina/Chajarí,Chajarí,South America,-57.979622,-30.750481
Argentina/Chamical,Chamical,South America,-66.313988,-30.36002
Argentina/Charadai,Charadai,South America,-59.900002,-27.633329
Argentina/Charata,Charata,South America,-61.18795,-27.21438
Argentina/Charras,Charras,South America,-64.047188,-33.023998
Argentina/Chavarría,Chavarría,South America,-58.572769,-28.95488
Argentina/Chazón,Chazón,South America,-63.276569,-33.07872
Argentina/Chepes,Chepes,South America,-66.599998,-31.33
Argentina/Chicoana,Chicoana,South America,-65.533096,-25.10088
Argentina/Chilecito,Chilecito,South America,-67.497398,-29.161949
Argentina/Chimbas,Chimbas,South America,-68.533333,-31.48333
Argentina/Chimpay,Chimpay,South America,-66.142357,-39.164822
Argentina/Chivilcoy,Chivilcoy,South America,-60.01667,-34.89566
Argentina/Choele Choel,Choele Choel,South America,-65.650002,-39.283333
Argentina/Chorotis,Chorotis,South America,-61.399818,-27.915779
Argentina/Chos Malal,Chos Malal,South America,-70.270851,-37.37809
Argentina/Ciervo Petiso,Ciervo Petiso,South America,-59.630939,-26.58041
Argentina/Cinco Saltos,Cinco Saltos,South America,-68.062927,-38.822239
Argentina/Cintra,Cintra,South America,-62.652142,-32.306728
Argentina/Cipolletti,Cipolletti,South America,-68.01667,-38.933334
Argentina/Clodomira,Clodomira,South America,-64.131081,-27.5744
Argentina/Clorinda,Clorinda,South America,-57.71851,-25.284809
Argentina/Colegiales,Colegiales,South America,-58.449242,-34.57365
Argentina/Colonia Aurora,Colonia Aurora,South America,-54.524979,-27.474279
Argentina/Colonia Barón,Colonia Barón,South America,-63.854038,-36.15152
Argentina/Colonia Benítez,Colonia Benítez,South America,-58.94622,-27.33099
Argentina/Colonia Carlos Pellegrini,Colonia Carlos Pellegrini,South America,-57.174339,-28.535561
Argentina/Colonia Dora,Colonia Dora,South America,-62.950001,-28.6
Argentina/Colonia Elisa,Colonia Elisa,South America,-59.518608,-26.93041
Argentina/Colonia Elía,Colonia Elía,South America,-58.32148,-32.666248
Argentina/Colonia La Tordilla,Colonia La Tordilla,South America,-63.06134,-31.237459
Argentina/Colonia San Bartolomé,Colonia San Bartolomé,South America,-62.724361,-31.5278
Argentina/Colonia Wanda,Colonia Wanda,South America,-54.428059,-25.974079
Argentina/Colonias Unidas,Colonias Unidas,South America,-59.631538,-26.69825
Argentina/Comallo,Comallo,South America,-70.267838,-41.02993
Argentina/Comandante Fontana,Comandante Fontana,South America,-59.682121,-25.33453
Argentina/Comandante Luis Piedra Buena,Comandante Luis Piedra Buena,South America,-68.933334,-50.0
Argentina/Comodoro Rivadavia,Comodoro Rivadavia,South America,-67.5,-45.783333
Argentina/Concarán,Concarán,South America,-65.242699,-32.560089
Argentina/Concepcion del Uruguay,Concepcion del Uruguay,South America,-58.266666,-32.466667
Argentina/Concepción,Concepción,South America,-57.887772,-28.39175
Argentina/Concepción de la Sierra,Concepción de la Sierra,South America,-55.520309,-27.98311
Argentina/Concepción del Bermejo,Concepción del Bermejo,South America,-60.946171,-26.59926
Argentina/Concordia,Concordia,South America,-58.016666,-31.299999
Argentina/Conscripto Bernardi,Conscripto Bernardi,South America,-59.084351,-31.04837
Argentina/Contraalmirante Cordero,Contraalmirante Cordero,South America,-68.15284,-38.724232
Argentina/Cordoba,Cordoba,South America,-64.216667,-31.316668
Argentina/Coronda,Coronda,South America,-60.919819,-31.97263
Argentina/Coronel Baigorria,Coronel Baigorria,South America,-64.361069,-32.847698
Argentina/Coronel Belisle,Coronel Belisle,South America,-65.98333,-39.183331
Argentina/Coronel Dorrego,Coronel Dorrego,South America,-61.287319,-38.71867
Argentina/Coronel Du Graty,Coronel Du Graty,South America,-60.914619,-27.68038
Argentina/Coronel Moldes,Coronel Moldes,South America,-64.597107,-33.6227
Argentina/Coronel Suarez,Coronel Suarez,South America,-61.950001,-37.5
Argentina/Corral de Bustos,Corral de Bustos,South America,-62.184631,-33.282051
Argentina/Corralito,Corralito,South America,-64.192162,-32.02462
Argentina/Corrientes,Corrientes,South America,-58.766666,-27.450001
Argentina/Corzuela,Corzuela,South America,-60.96928,-26.953739
Argentina/Cosquín,Cosquín,South America,-64.46563,-31.245081
Argentina/Costa Sacate,Costa Sacate,South America,-63.75935,-31.647699
Argentina/Coté-Lai,Coté-Lai,South America,-59.599998,-27.5
Argentina/Crespo,Crespo,South America,-60.30658,-32.028728
Argentina/Cristo Redentor,Cristo Redentor,South America,-32.826309,-32.826309
Argentina/Cruz Alta,Cruz Alta,South America,-61.807461,-33.008869
Argentina/Cruz de los Milagros,Cruz de los Milagros,South America,-59.004761,-28.83646
Argentina/Cruz del Eje,Cruz del Eje,South America,-64.803871,-30.72644
Argentina/Cuesta Blanca,Cuesta Blanca,South America,-64.571503,-31.48658
Argentina/Curuzú Cuatiá,Curuzú Cuatiá,South America,-58.0546,-29.79171
Argentina/Cutral-Có,Cutral-Có,South America,-69.230522,-38.934238
Argentina/Córdoba - Observatorio,Córdoba - Observatorio,South America,-64.181053,-31.4135
Argentina/Dalmacio Vélez Sársfield,Dalmacio Vélez Sársfield,South America,-63.580379,-32.610722
Argentina/Darwin,Darwin,South America,-65.76667,-39.200001
Argentina/Del Campillo,Del Campillo,South America,-64.495041,-34.376591
Argentina/Despeñaderos,Despeñaderos,South America,-64.289886,-31.816259
Argentina/Devoto,Devoto,South America,-62.306339,-31.40431
Argentina/Diamante,Diamante,South America,-60.638359,-32.06641
Argentina/Doblas,Doblas,South America,-64.011833,-37.14967
Argentina/Dolavón,Dolavón,South America,-65.699997,-43.299999
Argentina/Dolores,Dolores,South America,-57.299999,-36.266666
Argentina/Domínguez,Domínguez,South America,-58.961971,-31.987101
Argentina/Don Torcuato,Don Torcuato,South America,-58.639149,-34.496738
Argentina/Dos Arroyos,Dos Arroyos,South America,-55.233639,-27.70784
Argentina/Dos de Mayo,Dos de Mayo,South America,-54.686691,-27.02277
Argentina/Eduardo Castex,Eduardo Castex,South America,-64.294479,-35.915009
Argentina/El Aguilar,El Aguilar,South America,-65.692131,-23.225821
Argentina/El Alcázar,El Alcázar,South America,-54.815231,-26.71459
Argentina/El Arañado,El Arañado,South America,-62.893219,-31.741199
Argentina/El Bolsón,El Bolsón,South America,-71.51667,-41.966671
Argentina/El Calafate,El Calafate,South America,-72.26667,-50.333332
Argentina/El Carril,El Carril,South America,-65.491737,-25.0741
Argentina/El Chaltén,El Chaltén,South America,-72.886047,-49.329899
Argentina/El Colorado,El Colorado,South America,-59.37291,-26.308081
Argentina/El Galpón,El Galpón,South America,-64.652588,-25.38069
Argentina/El Hoyo,El Hoyo,South America,-63.231972,-27.028721
Argentina/El Huecú,El Huecú,South America,-70.580063,-37.645222
Argentina/El Maitén,El Maitén,South America,-71.166931,-42.04924
Argentina/El Palomar,El Palomar,South America,-58.61528,-34.541672
Argentina/El Quebrachal,El Quebrachal,South America,-64.066673,-25.283331
Argentina/El Rodeo,El Rodeo,South America,-65.874199,-28.215179
Argentina/El Soberbio,El Soberbio,South America,-54.198769,-27.29846
Argentina/El Trébol,El Trébol,South America,-61.701401,-32.200802
Argentina/El Tío,El Tío,South America,-62.82938,-31.38357
Argentina/Elena,Elena,South America,-64.394814,-32.572048
Argentina/Embajador Martini,Embajador Martini,South America,-64.280922,-35.38633
Argentina/Embalse,Embalse,South America,-64.418091,-32.18
Argentina/Embarcación,Embarcación,South America,-64.096046,-23.208981
Argentina/Esperanza,Esperanza,South America,-60.931728,-31.448799
Argentina/Esquel,Esquel,South America,-71.150002,-42.933334
Argentina/Esquina,Esquina,South America,-59.527191,-30.014441
Argentina/Estanislao del Campo,Estanislao del Campo,South America,-60.092178,-25.05504
Argentina/Etruria,Etruria,South America,-63.246601,-32.940079
Argentina/Ezeiza,Ezeiza,South America,-58.52869,-34.84787
Argentina/Famaillá,Famaillá,South America,-65.40329,-27.054131
Argentina/Federación,Federación,South America,-57.89962,-31.00621
Argentina/Federal,Federal,South America,-58.78326,-30.954651
Argentina/Felipe Yofré,Felipe Yofré,South America,-58.337719,-29.102261
Argentina/Fiambalá,Fiambalá,South America,-67.614899,-27.68705
Argentina/Firmat,Firmat,South America,-61.4832,-33.45937
Argentina/Florentino Ameghino,Florentino Ameghino,South America,-55.133331,-27.566669
Argentina/Fontana,Fontana,South America,-59.023918,-27.418131
Argentina/Formosa,Formosa,South America,-58.233334,-26.233334
Argentina/Fraile Pintado,Fraile Pintado,South America,-64.799431,-23.94079
Argentina/Fray Luis A. Beltrán,Fray Luis A. Beltrán,South America,-60.728191,-32.791222
Argentina/Fray Luis Beltrán,Fray Luis Beltrán,South America,-65.76667,-39.316669
Argentina/Funes,Funes,South America,-60.809952,-32.91568
Argentina/Gaimán,Gaimán,South America,-65.492897,-43.2897
Argentina/Gancedo,Gancedo,South America,-61.675709,-27.490379
Argentina/Garruchos,Garruchos,South America,-55.639469,-28.185141
Argentina/Garuhapé,Garuhapé,South America,-54.956638,-26.81768
Argentina/Garupá,Garupá,South America,-55.829208,-27.48171
Argentina/General Alvear,General Alvear,South America,-55.166672,-27.433331
Argentina/General Baldissera,General Baldissera,South America,-62.306301,-33.122459
Argentina/General Cabrera,General Cabrera,South America,-63.872429,-32.813129
Argentina/General Campos,General Campos,South America,-58.4049,-31.523109
Argentina/General Enrique Godoy,General Enrique Godoy,South America,-67.150002,-39.083328
Argentina/General Enrique Mosconi,General Enrique Mosconi,South America,-62.299999,-23.216669
Argentina/General Fernández Oro,General Fernández Oro,South America,-67.924889,-38.952969
Argentina/General Galarza,General Galarza,South America,-59.396149,-32.720341
Argentina/General José de San Martín,General José de San Martín,South America,-59.341579,-26.53743
Argentina/General Levalle,General Levalle,South America,-63.924129,-34.014721
Argentina/General Manuel J. Campos,General Manuel J. Campos,South America,-63.585369,-37.460251
Argentina/General Pico,General Pico,South America,-63.756821,-35.65662
Argentina/General Pinedo,General Pinedo,South America,-61.283329,-27.316669
Argentina/General Ramírez,General Ramírez,South America,-60.20079,-32.17601
Argentina/General Roca,General Roca,South America,-67.583328,-39.033329
Argentina/General San Martín,General San Martín,South America,-63.604488,-37.979038
Argentina/General Vedia,General Vedia,South America,-58.6604,-26.933821
Argentina/General Villegas,General Villegas,South America,-63.016666,-35.016666
Argentina/Gilbert,Gilbert,South America,-58.931351,-32.534988
Argentina/Gobernador Gregores,Gobernador Gregores,South America,-70.169998,-48.779999
Argentina/Gobernador Gálvez,Gobernador Gálvez,South America,-60.64045,-33.030159
Argentina/Gobernador Ingeniero Valentín Virasoro,Gobernador Ingeniero Valentín Virasoro,South America,-56.033329,-28.049999
Argentina/Gobernador Juan E. Martínez,Gobernador Juan E. Martínez,South America,-58.932919,-28.917049
Argentina/Gobernador Mansilla,Gobernador Mansilla,South America,-59.354801,-32.544529
Argentina/Gobernador Roca,Gobernador Roca,South America,-55.464329,-27.186359
Argentina/Gobernador Sola,Gobernador Sola,South America,-59.183334,-32.316666
Argentina/Goya,Goya,South America,-59.266666,-29.15
Argentina/Granadero Baigorria,Granadero Baigorria,South America,-60.717541,-32.856831
Argentina/Graneros,Graneros,South America,-65.438301,-27.64934
Argentina/Gualeguay,Gualeguay,South America,-59.309662,-33.14156
Argentina/Gualeguaychú,Gualeguaychú,South America,-58.51722,-33.00938
Argentina/Guaraní,Guaraní,South America,-55.166672,-27.51667
Argentina/Guatimozín,Guatimozín,South America,-62.438438,-33.461498
Argentina/Guatraché,Guatraché,South America,-63.53022,-37.667759
Argentina/Guaviraví,Guaviraví,South America,-56.828678,-29.36816
Argentina/Gálvez,Gálvez,South America,-61.221031,-32.02927
Argentina/Hasenkamp,Hasenkamp,South America,-59.835449,-31.51226
Argentina/Herlitzka,Herlitzka,South America,-58.255569,-27.565161
Argentina/Hermoso Campo,Hermoso Campo,South America,-61.34441,-27.60816
Argentina/Hernando,Hernando,South America,-63.73333,-32.426571
Argentina/Hernández,Hernández,South America,-60.021599,-32.337299
Argentina/Herradura,Herradura,South America,-58.311981,-26.487049
Argentina/Herrera,Herrera,South America,-58.624619,-32.435162
Argentina/Hersilia,Hersilia,South America,-61.840801,-30.004471
Argentina/Hoyo de Epuyén,Hoyo de Epuyén,South America,-71.50811,-42.071892
Argentina/Hualfín,Hualfín,South America,-66.831306,-27.22896
Argentina/Huanchillas,Huanchillas,South America,-63.637009,-33.666519
Argentina/Huerta Grande,Huerta Grande,South America,-64.490631,-31.075239
Argentina/Huillapima,Huillapima,South America,-65.978699,-28.72533
Argentina/Huinca Renancó,Huinca Renancó,South America,-64.375801,-34.840382
Argentina/Humahuaca,Humahuaca,South America,-65.350479,-23.205441
Argentina/Ibarreta,Ibarreta,South America,-59.858509,-25.21438
Argentina/Icaño,Icaño,South America,-65.328171,-28.91934
Argentina/Idiazábal,Idiazábal,South America,-63.03252,-32.81411
Argentina/Iguazu,Iguazu,South America,-54.466667,-25.733334
Argentina/Iguazu Falls,Iguazu Falls,South America,-54.443691,-25.68988
Argentina/Ingeniero Guillermo N. Juárez,Ingeniero Guillermo N. Juárez,South America,-61.849998,-23.9
Argentina/Ingeniero Jacobacci,Ingeniero Jacobacci,South America,-69.544792,-41.34269
Argentina/Ingeniero Luiggi,Ingeniero Luiggi,South America,-64.465187,-35.385849
Argentina/Ingeniero Luis A. Huergo,Ingeniero Luis A. Huergo,South America,-67.23333,-39.083328
Argentina/Ingenio La Esperanza,Ingenio La Esperanza,South America,-64.838959,-24.22554
Argentina/Inriville,Inriville,South America,-62.230282,-32.944241
Argentina/Intendente Alvear,Intendente Alvear,South America,-63.592049,-35.233829
Argentina/Isla Verde,Isla Verde,South America,-62.402969,-33.241039
Argentina/Italó,Italó,South America,-63.78199,-34.79237
Argentina/Itatí,Itatí,South America,-58.244579,-27.27043
Argentina/Itá Ibaté,Itá Ibaté,South America,-57.337582,-27.42573
Argentina/Jacinto Arauz,Jacinto Arauz,South America,-63.43169,-38.08606
Argentina/James Craik,James Craik,South America,-63.466881,-32.161201
Argentina/Jardín América,Jardín América,South America,-55.226978,-27.043461
Argentina/Jesús María,Jesús María,South America,-64.094238,-30.981529
Argentina/Joaquín V. González,Joaquín V. González,South America,-64.183327,-25.08333
Argentina/José de San Martín,José de San Martín,South America,-70.469673,-44.05032
Argentina/Juan Pujol,Juan Pujol,South America,-57.856121,-30.41873
Argentina/Jujuy,Jujuy,South America,-65.26667,-24.233334
Argentina/Junin,Junin,South America,-60.950001,-34.549999
Argentina/Junín de los Andes,Junín de los Andes,South America,-71.069359,-39.950432
Argentina/Justiniano Posse,Justiniano Posse,South America,-62.677879,-32.884109
Argentina/Justo Daract,Justo Daract,South America,-65.18277,-33.859402
Argentina/La Calera,La Calera,South America,-64.335289,-31.343769
Argentina/La Carlota,La Carlota,South America,-63.297691,-33.41993
Argentina/La Cesira,La Cesira,South America,-62.972382,-33.951149
Argentina/La Clotilde,La Clotilde,South America,-60.666672,-27.133329
Argentina/La Cocha,La Cocha,South America,-65.570351,-27.77729
Argentina/La Criolla,La Criolla,South America,-58.105579,-31.269039
Argentina/La Cruz,La Cruz,South America,-56.643261,-29.174431
Argentina/La Cumbre,La Cumbre,South America,-64.491386,-30.98201
Argentina/La Cumbrecita,La Cumbrecita,South America,-64.773308,-31.898821
Argentina/La Eduvigis,La Eduvigis,South America,-59.06842,-26.85545
Argentina/La Escondida,La Escondida,South America,-59.447842,-27.107241
Argentina/La Falda,La Falda,South America,-64.489868,-31.088409
Argentina/La Francia,La Francia,South America,-62.633961,-31.40675
Argentina/La Granja,La Granja,South America,-64.268692,-31.00919
Argentina/La Humada,La Humada,South America,-68.013557,-36.349049
Argentina/La Leonesa,La Leonesa,South America,-58.703468,-27.037861
Argentina/La Maruja,La Maruja,South America,-64.939972,-35.673599
Argentina/La Mendieta,La Mendieta,South America,-64.963768,-24.311871
Argentina/La Para,La Para,South America,-63.001068,-30.894159
Argentina/La Paz,La Paz,South America,-59.64566,-30.74485
Argentina/La Plata,La Plata,South America,-57.900002,-34.966667
Argentina/La Playosa,La Playosa,South America,-63.03088,-32.100021
Argentina/La Puerta de San José,La Puerta de San José,South America,-67.01667,-27.549999
Argentina/La Punta,La Punta,South America,-66.312698,-33.183681
Argentina/La Quiaca,La Quiaca,South America,-65.599998,-22.1
Argentina/La Rioja,La Rioja,South America,-66.816666,-29.383333
Argentina/La Tigra,La Tigra,South America,-60.587189,-27.109961
Argentina/La Toma,La Toma,South America,-65.623848,-33.052582
Argentina/La Verde,La Verde,South America,-59.37352,-27.126341
Argentina/Laborde,Laborde,South America,-62.856609,-33.153191
Argentina/Laboulaye,Laboulaye,South America,-63.39119,-34.126621
Argentina/Lago Puelo,Lago Puelo,South America,-71.614052,-42.080952
Argentina/Laguna Alsina,Laguna Alsina,South America,-62.216667,-36.900002
Argentina/Laguna Larga,Laguna Larga,South America,-63.801041,-31.77652
Argentina/Laguna Limpia,Laguna Limpia,South America,-59.680828,-26.495649
Argentina/Laguna Naick-Neck,Laguna Naick-Neck,South America,-58.09383,-25.24769
Argentina/Laguna Paiva,Laguna Paiva,South America,-60.658939,-31.303909
Argentina/Laguna Yema,Laguna Yema,South America,-61.244659,-24.25391
Argentina/Lamarque,Lamarque,South America,-65.70208,-39.423038
Argentina/Lapachito,Lapachito,South America,-59.38604,-27.159981
Argentina/Larroque,Larroque,South America,-59.001251,-33.03595
Argentina/Las Acequias,Las Acequias,South America,-63.976101,-33.281551
Argentina/Las Breñas,Las Breñas,South America,-61.081612,-27.089661
Argentina/Las Flores,Las Flores,South America,-59.099998,-36.07
Argentina/Las Garcitas,Las Garcitas,South America,-59.799999,-26.58333
Argentina/Las Heras,Las Heras,South America,-68.949997,-46.549999
Argentina/Las Junturas,Las Junturas,South America,-63.450161,-31.831249
Argentina/Las Lajas,Las Lajas,South America,-70.367439,-38.52322
Argentina/Las Lajitas,Las Lajitas,South America,-64.25,-24.683331
Argentina/Las Leñas,Las Leñas,South America,-70.082474,-35.146858
Argentina/Las Lomitas,Las Lomitas,South America,-60.593029,-24.709551
Argentina/Las Ovejas,Las Ovejas,South America,-70.749908,-36.988811
Argentina/Las Parejas,Las Parejas,South America,-61.516369,-32.68478
Argentina/Las Perdices,Las Perdices,South America,-63.706341,-32.697941
Argentina/Las Rosas,Las Rosas,South America,-61.58041,-32.476608
Argentina/Las Toscas,Las Toscas,South America,-59.25795,-28.3529
Argentina/Las Varas,Las Varas,South America,-62.61655,-31.802601
Argentina/Las Varillas,Las Varillas,South America,-62.71946,-31.87208
Argentina/Leones,Leones,South America,-62.29678,-32.661739
Argentina/Libertad,Libertad,South America,-57.820202,-30.042999
Argentina/Libertador General San Martín,Libertador General San Martín,South America,-64.787567,-23.80644
Argentina/Lincoln,Lincoln,South America,-61.530201,-34.866489
Argentina/Llao Llao,Llao Llao,South America,-71.536621,-41.053532
Argentina/Lomas de Vallejos,Lomas de Vallejos,South America,-57.918499,-27.73501
Argentina/Loncopué,Loncopué,South America,-70.616089,-38.072842
Argentina/Londres,Londres,South America,-67.133492,-27.71439
Argentina/Lonquimay,Lonquimay,South America,-63.62429,-36.465462
Argentina/Loreto,Loreto,South America,-57.275311,-27.768339
Argentina/Los Altos,Los Altos,South America,-65.499458,-28.04845
Argentina/Los Antiguos,Los Antiguos,South America,-71.630859,-46.549721
Argentina/Los Charrúas,Los Charrúas,South America,-58.18774,-31.17548
Argentina/Los Conquistadores,Los Conquistadores,South America,-58.467731,-30.590799
Argentina/Los Cóndores,Los Cóndores,South America,-64.277519,-32.319839
Argentina/Los Frentones,Los Frentones,South America,-61.413681,-26.4077
Argentina/Los Helechos,Los Helechos,South America,-55.076832,-27.5576
Argentina/Los Juríes,Los Juríes,South America,-62.10862,-28.465389
Argentina/Los Menucos,Los Menucos,South America,-68.087181,-40.844021
Argentina/Los Surgentes,Los Surgentes,South America,-62.021912,-32.984539
Argentina/Los Telares,Los Telares,South America,-63.448891,-28.984791
Argentina/Los Varela,Los Varela,South America,-65.865501,-27.954821
Argentina/Lucas González,Lucas González,South America,-59.530128,-32.3843
Argentina/Luján,Luján,South America,-59.105,-34.570278
Argentina/Machagai,Machagai,South America,-60.049561,-26.92614
Argentina/Maciá,Maciá,South America,-59.399471,-32.172199
Argentina/Maimará,Maimará,South America,-65.407967,-23.62392
Argentina/Mainque,Mainque,South America,-67.300003,-39.066669
Argentina/Makallé,Makallé,South America,-59.286961,-27.206869
Argentina/Malabrigo,Malabrigo,South America,-59.96957,-29.346359
Argentina/Malagueño,Malagueño,South America,-64.358398,-31.46467
Argentina/Malargue,Malargue,South America,-69.583336,-35.466667
Argentina/Malvinas Argentinas,Malvinas Argentinas,South America,-64.066673,-31.383329
Argentina/Maquinchao,Maquinchao,South America,-68.730003,-41.25
Argentina/Mar Del Plata,Mar Del Plata,South America,-57.583332,-37.933334
Argentina/Mar de las Pampas,Mar de las Pampas,South America,-57.02179,-37.325119
Argentina/Marcos Juarez,Marcos Juarez,South America,-62.150002,-32.700001
Argentina/Margarita Belén,Margarita Belén,South America,-58.972191,-27.2616
Argentina/Mariano I. Loza,Mariano I. Loza,South America,-58.194359,-29.37668
Argentina/Mariano Moreno,Mariano Moreno,South America,-70.023666,-38.75029
Argentina/Marull,Marull,South America,-62.82576,-30.994711
Argentina/Mattaldi,Mattaldi,South America,-64.172546,-34.481941
Argentina/Mburucuyá,Mburucuyá,South America,-58.224491,-28.045389
Argentina/Mendiolaza,Mendiolaza,South America,-64.300873,-31.26738
Argentina/Mendoza,Mendoza,South America,-68.783333,-32.833332
Argentina/Mendoza - Observatorio,Mendoza - Observatorio,South America,-68.827171,-32.890839
Argentina/Mercedes,Mercedes,South America,-59.430679,-34.651459
Argentina/Merlo,Merlo,South America,-65.013962,-32.34288
Argentina/Miguel Riglos,Miguel Riglos,South America,-63.688419,-36.853981
Argentina/Mina Clavero,Mina Clavero,South America,-65.006187,-31.721001
Argentina/Miramar,Miramar,South America,-62.678139,-30.918579
Argentina/Mocoretá,Mocoretá,South America,-57.96344,-30.61891
Argentina/Mojón Grande,Mojón Grande,South America,-55.156311,-27.711639
Argentina/Monte Buey,Monte Buey,South America,-62.45668,-32.91642
Argentina/Monte Caseros,Monte Caseros,South America,-57.633335,-30.266666
Argentina/Monte Cristo,Monte Cristo,South America,-63.94437,-31.343121
Argentina/Monte Dinero,Monte Dinero,South America,-68.349998,-52.349998
Argentina/Monte Maíz,Monte Maíz,South America,-62.600849,-33.20462
Argentina/Montecarlo,Montecarlo,South America,-54.757,-26.5662
Argentina/Morrison,Morrison,South America,-62.834549,-32.594799
Argentina/Morteros,Morteros,South America,-61.998619,-30.711639
Argentina/Morón,Morón,South America,-58.619751,-34.653439
Argentina/Mutquín,Mutquín,South America,-66.142532,-28.321039
Argentina/Mártires,Mártires,South America,-55.383331,-27.433331
Argentina/Napenay,Napenay,South America,-60.616669,-26.73333
Argentina/Naschel,Naschel,South America,-65.375351,-32.916561
Argentina/Necochea,Necochea,South America,-58.833332,-38.483334
Argentina/Neuquen,Neuquen,South America,-68.133331,-38.950001
Argentina/Nicolas Levalle,Nicolas Levalle,South America,-62.083332,-38.883335
Argentina/Noetinger,Noetinger,South America,-62.31126,-32.365971
Argentina/Nuestra Señora del Rosario de Caa Catí,Nuestra Señora del Rosario de Caa Catí,South America,-57.620731,-27.750719
Argentina/Nueve De Julio,Nueve De Julio,South America,-60.883129,-35.44437
Argentina/Nueve de Julio,Nueve de Julio,South America,-58.8265,-28.840509
Argentina/Oberá,Oberá,South America,-55.119942,-27.487061
Argentina/Obispo Trejo,Obispo Trejo,South America,-63.413479,-30.781281
Argentina/Olavarría,Olavarría,South America,-60.32254,-36.892719
Argentina/Oliva,Oliva,South America,-63.569778,-32.04158
Argentina/Oncativo,Oncativo,South America,-63.682011,-31.91353
Argentina/Ordóñez,Ordóñez,South America,-62.86552,-32.840569
Argentina/Oro Verde,Oro Verde,South America,-60.51749,-31.825081
Argentina/Palma Sola,Palma Sola,South America,-64.298721,-23.96336
Argentina/Palmar Grande,Palmar Grande,South America,-57.90057,-27.94195
Argentina/Palo Santo,Palo Santo,South America,-59.337811,-25.56332
Argentina/Palpalá,Palpalá,South America,-65.211632,-24.256479
Argentina/Pampa Almirón,Pampa Almirón,South America,-59.133331,-26.700001
Argentina/Pampa de los Guanacos,Pampa de los Guanacos,South America,-61.849998,-26.23333
Argentina/Pampa del Indio,Pampa del Indio,South America,-59.91898,-26.06468
Argentina/Pampa del Infierno,Pampa del Infierno,South America,-61.174358,-26.505171
Argentina/Panambí,Panambí,South America,-54.915138,-27.7237
Argentina/Parana,Parana,South America,-60.483334,-31.783333
Argentina/Parera,Parera,South America,-64.500893,-35.146
Argentina/Pascanas,Pascanas,South America,-63.04084,-33.1255
Argentina/Pasco,Pasco,South America,-63.342319,-32.74733
Argentina/Paso Del Los Indios,Paso Del Los Indios,South America,-69.046028,-43.799999
Argentina/Paso de la Patria,Paso de la Patria,South America,-58.571972,-27.316759
Argentina/Paso de los Libres,Paso de los Libres,South America,-57.150002,-29.683332
Argentina/Pedro R. Fernández,Pedro R. Fernández,South America,-58.65583,-28.750971
Argentina/Pehuajó,Pehuajó,South America,-61.896801,-35.810768
Argentina/Pergamino,Pergamino,South America,-60.57357,-33.88995
Argentina/Perito Moreno,Perito Moreno,South America,-70.929749,-46.589939
Argentina/Perugorría,Perugorría,South America,-58.610592,-29.34132
Argentina/Picada Gobernador López,Picada Gobernador López,South America,-55.24585,-27.670691
Argentina/Pico Truncado,Pico Truncado,South America,-67.957314,-46.794899
Argentina/Picún Leufú,Picún Leufú,South America,-69.279663,-39.52351
Argentina/Piedra del Águila,Piedra del Águila,South America,-70.074097,-40.048111
Argentina/Piedras Blancas,Piedras Blancas,South America,-59.959572,-31.18623
Argentina/Pigue,Pigue,South America,-62.380001,-37.599998
Argentina/Pilar,Pilar,South America,-63.880001,-31.67
Argentina/Pilcaniyeu,Pilcaniyeu,South America,-70.729141,-41.118809
Argentina/Pinamar,Pinamar,South America,-56.861401,-37.107941
Argentina/Piquillín,Piquillín,South America,-63.757881,-31.30158
Argentina/Pirané,Pirané,South America,-59.108791,-25.732389
Argentina/Plaza Huincul,Plaza Huincul,South America,-69.199997,-38.900002
Argentina/Plottier,Plottier,South America,-68.23333,-38.966671
Argentina/Pocito,Pocito,South America,-68.583328,-31.683331
Argentina/Pomán,Pomán,South America,-66.22052,-28.39455
Argentina/Pontevedra,Pontevedra,South America,-58.686958,-34.749741
Argentina/Porteña,Porteña,South America,-62.066502,-31.01391
Argentina/Posadas,Posadas,South America,-55.966667,-27.366667
Argentina/Pozo del Molle,Pozo del Molle,South America,-62.919842,-32.0186
Argentina/Pozo del Tigre,Pozo del Tigre,South America,-60.323589,-24.89682
Argentina/Presidencia Roca,Presidencia Roca,South America,-59.595409,-26.1409
Argentina/Presidencia Roque Saenz Pena,Presidencia Roque Saenz Pena,South America,-60.450001,-26.816668
Argentina/Presidencia de la Plaza,Presidencia de la Plaza,South America,-59.84243,-27.001471
Argentina/Primero de Mayo,Primero de Mayo,South America,-68.416672,-32.26667
Argentina/Pronunciamiento,Pronunciamiento,South America,-58.432869,-32.346169
Argentina/Pueblo Libertador,Pueblo Libertador,South America,-59.389809,-30.220869
Argentina/Puente del Inca,Puente del Inca,South America,-69.913094,-32.823898
Argentina/Puerta de Corral Quemado,Puerta de Corral Quemado,South America,-66.936348,-27.23
Argentina/Puerto Bermejo,Puerto Bermejo,South America,-58.505379,-26.93173
Argentina/Puerto Deseado,Puerto Deseado,South America,-65.916664,-47.733334
Argentina/Puerto Eldorado,Puerto Eldorado,South America,-54.69463,-26.408421
Argentina/Puerto Esperanza,Puerto Esperanza,South America,-54.673061,-26.015169
Argentina/Puerto Ibicuy,Puerto Ibicuy,South America,-59.183331,-33.73333
Argentina/Puerto Leoni,Puerto Leoni,South America,-55.165699,-26.96069
Argentina/Puerto Libertad,Puerto Libertad,South America,-54.620892,-25.91641
Argentina/Puerto Madryn,Puerto Madryn,South America,-65.01667,-42.783333
Argentina/Puerto Piray,Puerto Piray,South America,-54.71476,-26.467791
Argentina/Puerto Rico,Puerto Rico,South America,-55.024021,-26.79598
Argentina/Puerto San Julian,Puerto San Julian,South America,-67.783333,-49.316666
Argentina/Puerto Tirol,Puerto Tirol,South America,-59.082062,-27.372181
Argentina/Puerto Vilelas,Puerto Vilelas,South America,-58.93906,-27.514139
Argentina/Punta Alta,Punta Alta,South America,-62.073589,-38.875881
Argentina/Punta Indio,Punta Indio,South America,-57.299999,-35.349998
Argentina/Punta Lara,Punta Lara,South America,-57.983334,-34.833332
Argentina/Purmamarca,Purmamarca,South America,-65.501183,-23.747391
Argentina/Pérez,Pérez,South America,-60.76791,-32.998348
Argentina/Quemú Quemú,Quemú Quemú,South America,-63.564281,-36.05463
Argentina/Quilino,Quilino,South America,-64.500633,-30.21397
Argentina/Quilmes,Quilmes,South America,-58.252651,-34.724178
Argentina/Quimilí,Quimilí,South America,-62.416672,-27.633329
Argentina/Quitilipi,Quitilipi,South America,-60.216831,-26.869129
Argentina/Rada Tilly,Rada Tilly,South America,-67.533333,-45.933331
Argentina/Rafaela,Rafaela,South America,-61.486698,-31.25033
Argentina/Ramada Paso,Ramada Paso,South America,-58.311218,-27.3734
Argentina/Rancul,Rancul,South America,-64.681068,-35.068619
Argentina/Rawson,Rawson,South America,-65.10228,-43.300159
Argentina/Realicó,Realicó,South America,-64.244698,-35.036579
Argentina/Reconquista,Reconquista,South America,-59.666668,-29.183332
Argentina/Recreo,Recreo,South America,-60.73299,-31.490761
Argentina/Resistencia,Resistencia,South America,-59.049999,-27.450001
Argentina/Retiro,Retiro,South America,-58.383331,-34.583328
Argentina/Riacho Eh-Eh,Riacho Eh-Eh,South America,-58.2775,-25.362089
Argentina/Riachuelo,Riachuelo,South America,-58.739449,-27.577539
Argentina/Rio Cuarto,Rio Cuarto,South America,-64.23333,-33.116665
Argentina/Rio Gallegos,Rio Gallegos,South America,-69.283333,-51.616665
Argentina/Rio Grande,Rio Grande,South America,-67.75,-53.799999
Argentina/Rivadavia,Rivadavia,South America,-62.900002,-24.166666
Argentina/Roldán,Roldán,South America,-60.906811,-32.89846
Argentina/Rosario,Rosario,South America,-60.783333,-32.916668
Argentina/Rosario del Tala,Rosario del Tala,South America,-59.145451,-32.30286
Argentina/Rufino,Rufino,South America,-62.71262,-34.268269
Argentina/Ruiz de Montoya,Ruiz de Montoya,South America,-55.049999,-26.98333
Argentina/Río Ceballos,Río Ceballos,South America,-64.322411,-31.16486
Argentina/Río Colorado,Río Colorado,South America,-64.092949,-38.99398
Argentina/Río Cuarto,Río Cuarto,South America,-64.349922,-33.130669
Argentina/Río Mayo,Río Mayo,South America,-70.257973,-45.68573
Argentina/Río Pico,Río Pico,South America,-71.368469,-44.179039
Argentina/Río Segundo,Río Segundo,South America,-63.909901,-31.652599
Argentina/Río Tercero,Río Tercero,South America,-64.114059,-32.173012
Argentina/Río Turbio,Río Turbio,South America,-72.336731,-51.53587
Argentina/Sacanta,Sacanta,South America,-63.045052,-31.663
Argentina/Saladas,Saladas,South America,-58.625912,-28.253839
Argentina/Saldán,Saldán,South America,-64.306999,-31.30262
Argentina/Salsacate,Salsacate,South America,-65.085289,-31.31649
Argentina/Salsipuedes,Salsipuedes,South America,-64.295891,-31.137239
Argentina/Salta,Salta,South America,-65.48333,-24.85
Argentina/Sampacho,Sampacho,South America,-64.722107,-33.3839
Argentina/Samuhú,Samuhú,South America,-60.39167,-27.52116
Argentina/San Agustín,San Agustín,South America,-64.374001,-31.97681
Argentina/San Agustín de Valle Fértil,San Agustín de Valle Fértil,South America,-67.468208,-30.63353
Argentina/San Antonio,San Antonio,South America,-65.712181,-28.00927
Argentina/San Antonio Oeste,San Antonio Oeste,South America,-64.949997,-40.066666
Argentina/San Antonio de Litín,San Antonio de Litín,South America,-62.63237,-32.213772
Argentina/San Antonio de los Cobres,San Antonio de los Cobres,South America,-66.318771,-24.21804
Argentina/San Basilio,San Basilio,South America,-64.314949,-33.497631
Argentina/San Benito,San Benito,South America,-60.483334,-31.783333
Argentina/San Bernardo,San Bernardo,South America,-60.712521,-27.287821
Argentina/San Carlos,San Carlos,South America,-55.897301,-27.745859
Argentina/San Carlos Centro,San Carlos Centro,South America,-61.091919,-31.72864
Argentina/San Carlos de Bariloche,San Carlos de Bariloche,South America,-71.166664,-41.150002
Argentina/San Clemente del Tuyú,San Clemente del Tuyú,South America,-56.723511,-36.356941
Argentina/San Cosme,San Cosme,South America,-58.512138,-27.371229
Argentina/San Cristóbal,San Cristóbal,South America,-61.23724,-30.31053
Argentina/San Francisco,San Francisco,South America,-62.082661,-31.427971
Argentina/San Francisco de Laishí,San Francisco de Laishí,South America,-58.63039,-26.24262
Argentina/San Francisco del Chañar,San Francisco del Chañar,South America,-63.93861,-29.789909
Argentina/San Francisco del Monte de Oro,San Francisco del Monte de Oro,South America,-66.125389,-32.598251
Argentina/San Gustavo,San Gustavo,South America,-59.398399,-30.68961
Argentina/San Isidro,San Isidro,South America,-58.507759,-34.471451
Argentina/San Javier,San Javier,South America,-59.931702,-30.57781
Argentina/San Jorge,San Jorge,South America,-61.85984,-31.896179
Argentina/San Jose de Jachal,San Jose de Jachal,South America,-68.75,-30.25
Argentina/San José,San José,South America,-55.7826,-27.769791
Argentina/San José de Feliciano,San José de Feliciano,South America,-58.751671,-30.38452
Argentina/San José de la Dormida,San José de la Dormida,South America,-63.948719,-30.354401
Argentina/San Juan,San Juan,South America,-68.416664,-31.566668
Argentina/San Justo,San Justo,South America,-58.435692,-32.446541
Argentina/San Lorenzo,San Lorenzo,South America,-58.76733,-28.13306
Argentina/San Luis,San Luis,South America,-66.349998,-33.266666
Argentina/San Luis del Palmar,San Luis del Palmar,South America,-58.554539,-27.5079
Argentina/San Martín,San Martín,South America,-68.46814,-33.081032
Argentina/San Martín de los Andes,San Martín de los Andes,South America,-71.348648,-40.160381
Argentina/San Miguel,San Miguel,South America,-57.589642,-27.99585
Argentina/San Nicolás de los Arroyos,San Nicolás de los Arroyos,South America,-60.225231,-33.335781
Argentina/San Pedro,San Pedro,South America,-54.108421,-26.62207
Argentina/San Rafael,San Rafael,South America,-68.400002,-34.583332
Argentina/San Ramón de la Nueva Orán,San Ramón de la Nueva Orán,South America,-64.325981,-23.132231
Argentina/San Salvador,San Salvador,South America,-58.505241,-31.62487
Argentina/San Vicente,San Vicente,South America,-54.133331,-26.616671
Argentina/Santa Ana,Santa Ana,South America,-57.931622,-30.90004
Argentina/Santa Anita,Santa Anita,South America,-58.786221,-32.174759
Argentina/Santa Catalina - Dique Lujan,Santa Catalina - Dique Lujan,South America,-58.70673,-34.383751
Argentina/Santa Clara,Santa Clara,South America,-64.662529,-24.30921
Argentina/Santa Cruz,Santa Cruz,South America,-68.566666,-50.016666
Argentina/Santa Eufemia,Santa Eufemia,South America,-63.28281,-33.176579
Argentina/Santa Fe de la Vera Cruz,Santa Fe de la Vera Cruz,South America,-60.700001,-31.633329
Argentina/Santa Isabel,Santa Isabel,South America,-66.942398,-36.227242
Argentina/Santa Lucía,Santa Lucía,South America,-59.102871,-28.987459
Argentina/Santa Magdalena,Santa Magdalena,South America,-63.944092,-34.517761
Argentina/Santa María,Santa María,South America,-55.38541,-27.903561
Argentina/Santa Rosa,Santa Rosa,South America,-58.118912,-28.26318
Argentina/Santa Rosa de Calamuchita,Santa Rosa de Calamuchita,South America,-64.536308,-32.06905
Argentina/Santa Rosa de Río Primero,Santa Rosa de Río Primero,South America,-63.401909,-31.152309
Argentina/Santa Rosa de Tastil,Santa Rosa de Tastil,South America,-65.974518,-24.45166
Argentina/Santa Rosa del Conlara,Santa Rosa del Conlara,South America,-65.203232,-32.342861
Argentina/Santa Sylvina,Santa Sylvina,South America,-61.13747,-27.832609
Argentina/Santiago Del Estero,Santiago Del Estero,South America,-64.300003,-27.766666
Argentina/Santiago Temple,Santiago Temple,South America,-63.418209,-31.38731
Argentina/Santo Pipó,Santo Pipó,South America,-55.408669,-27.141319
Argentina/Santo Tomé,Santo Tomé,South America,-56.040771,-28.549391
Argentina/Sastre,Sastre,South America,-61.828861,-31.76762
Argentina/Saturnino M. Laspiur,Saturnino M. Laspiur,South America,-62.482021,-31.702869
Argentina/Sauce de Luna,Sauce de Luna,South America,-59.218719,-31.23794
Argentina/Sebastián Elcano,Sebastián Elcano,South America,-63.593601,-30.161051
Argentina/Seguí,Seguí,South America,-60.124882,-31.956421
Argentina/Senillosa,Senillosa,South America,-68.416672,-39.0
Argentina/Serrano,Serrano,South America,-63.538422,-34.469711
Argentina/Serrezuela,Serrezuela,South America,-65.386917,-30.637609
Argentina/Sierra Colorada,Sierra Colorada,South America,-67.756737,-40.584869
Argentina/Sierra Grande,Sierra Grande,South America,-65.355743,-41.606022
Argentina/Simoca,Simoca,South America,-65.356468,-27.26272
Argentina/Spurr,Spurr,South America,-62.316666,-38.683334
Argentina/Sumampa,Sumampa,South America,-63.469059,-29.384701
Argentina/Sunchales,Sunchales,South America,-61.561481,-30.94404
Argentina/Suncho Corral,Suncho Corral,South America,-63.429379,-27.933571
Argentina/Tabossi,Tabossi,South America,-59.934769,-31.80135
Argentina/Taco Pozo,Taco Pozo,South America,-63.283329,-25.616671
Argentina/Tacuara,Tacuara,South America,-65.083336,-24.383333
Argentina/Tafí Viejo,Tafí Viejo,South America,-65.259209,-26.73201
Argentina/Tafí del Valle,Tafí del Valle,South America,-65.709831,-26.852751
Argentina/Tancacha,Tancacha,South America,-63.980701,-32.243092
Argentina/Tandil,Tandil,South America,-59.233334,-37.233334
Argentina/Tapebicuá,Tapebicuá,South America,-56.97488,-29.506161
Argentina/Tartagal,Tartagal,South America,-63.801311,-22.516359
Argentina/Telén,Telén,South America,-65.510178,-36.26429
Argentina/Termas de Río Hondo,Termas de Río Hondo,South America,-64.86042,-27.49983
Argentina/Ticino,Ticino,South America,-63.436062,-32.693501
Argentina/Tigre,Tigre,South America,-58.416668,-34.566666
Argentina/Tilcara,Tilcara,South America,-65.350899,-23.57757
Argentina/Tilisarao,Tilisarao,South America,-65.291092,-32.732922
Argentina/Tinogasta,Tinogasta,South America,-67.56488,-28.06319
Argentina/Tintina,Tintina,South America,-62.716671,-27.033331
Argentina/Toledo,Toledo,South America,-64.009468,-31.55574
Argentina/Tostado,Tostado,South America,-61.769169,-29.232019
Argentina/Totoras,Totoras,South America,-61.168522,-32.5844
Argentina/Trancas,Trancas,South America,-65.280251,-26.23135
Argentina/Trelew,Trelew,South America,-65.316666,-43.233334
Argentina/Trenel,Trenel,South America,-64.132179,-35.698372
Argentina/Tres Arroyos,Tres Arroyos,South America,-60.279781,-38.37394
Argentina/Tres Capones,Tres Capones,South America,-55.60471,-28.006411
Argentina/Tres Isletas,Tres Isletas,South America,-60.432072,-26.34066
Argentina/Trevelin,Trevelin,South America,-71.46386,-43.0858
Argentina/Tucuman,Tucuman,South America,-65.099998,-26.85
Argentina/Tío Pujio,Tío Pujio,South America,-63.35598,-32.287899
Argentina/Ubajay,Ubajay,South America,-58.313499,-31.793579
Argentina/Ucacha,Ucacha,South America,-63.50666,-33.032028
Argentina/Unión,Unión,South America,-65.946022,-35.152821
Argentina/Unquillo,Unquillo,South America,-64.316147,-31.23073
Argentina/Urdinarrain,Urdinarrain,South America,-58.893242,-32.68573
Argentina/Uriburu,Uriburu,South America,-63.862259,-36.506821
Argentina/Ushuaia,Ushuaia,South America,-68.316666,-54.816666
Argentina/Uspallata,Uspallata,South America,-69.348717,-32.591702
Argentina/Valcheta,Valcheta,South America,-66.150002,-40.700001
Argentina/Valle Hermoso,Valle Hermoso,South America,-64.480843,-31.117319
Argentina/Veinticinco de Mayo,Veinticinco de Mayo,South America,-54.743118,-27.376789
Argentina/Venado Tuerto,Venado Tuerto,South America,-61.968842,-33.74556
Argentina/Vera,Vera,South America,-60.212608,-29.459299
Argentina/Viale,Viale,South America,-60.007221,-31.867821
Argentina/Viamonte,Viamonte,South America,-63.097641,-33.746471
Argentina/Victoria,Victoria,South America,-65.416664,-36.216667
Argentina/Victorica,Victorica,South America,-65.43586,-36.21505
Argentina/Vicuña Mackenna,Vicuña Mackenna,South America,-64.392151,-33.919651
Argentina/Viedma,Viedma,South America,-63.0,-40.900002
Argentina/Villa Allende,Villa Allende,South America,-64.29538,-31.29458
Argentina/Villa Ascasubi,Villa Ascasubi,South America,-63.891571,-32.163509
Argentina/Villa Atamisqui,Villa Atamisqui,South America,-63.81609,-28.49609
Argentina/Villa Berna,Villa Berna,South America,-64.756508,-31.90321
Argentina/Villa Berthet,Villa Berthet,South America,-60.412628,-27.29174
Argentina/Villa Bustos,Villa Bustos,South America,-67.033081,-29.28483
Argentina/Villa Carlos Paz,Villa Carlos Paz,South America,-64.49778,-31.424141
Argentina/Villa Catedral,Villa Catedral,South America,-71.438766,-41.167351
Argentina/Villa Cañás,Villa Cañás,South America,-61.607571,-34.00565
Argentina/Villa Concepción del Tío,Villa Concepción del Tío,South America,-62.813541,-31.32259
Argentina/Villa Constitución,Villa Constitución,South America,-60.3297,-33.227779
Argentina/Villa Cura Brochero,Villa Cura Brochero,South America,-65.01796,-31.70578
Argentina/Villa Dolores,Villa Dolores,South America,-65.133331,-31.950001
Argentina/Villa Elisa,Villa Elisa,South America,-58.400822,-32.1632
Argentina/Villa Escolar,Villa Escolar,South America,-58.671341,-26.622089
Argentina/Villa General Belgrano,Villa General Belgrano,South America,-64.555901,-31.97542
Argentina/Villa General Mitre,Villa General Mitre,South America,-62.652481,-29.143101
Argentina/Villa General Roca,Villa General Roca,South America,-66.450523,-32.665352
Argentina/Villa Gesell,Villa Gesell,South America,-56.973042,-37.263939
Argentina/Villa Giardino,Villa Giardino,South America,-64.48333,-31.033331
Argentina/Villa Hernandarias,Villa Hernandarias,South America,-59.985001,-31.23101
Argentina/Villa Huidobro,Villa Huidobro,South America,-64.586861,-34.838261
Argentina/Villa La Angostura,Villa La Angostura,South America,-71.646309,-40.76173
Argentina/Villa Las Rosas,Villa Las Rosas,South America,-65.053543,-31.950211
Argentina/Villa Lugano,Villa Lugano,South America,-58.472618,-34.67907
Argentina/Villa Mantero,Villa Mantero,South America,-58.74596,-32.39727
Argentina/Villa María,Villa María,South America,-63.240162,-32.407509
Argentina/Villa María Del Río Seco,Villa María Del Río Seco,South America,-63.683331,-29.9
Argentina/Villa María Grande,Villa María Grande,South America,-59.901821,-31.665649
Argentina/Villa Mercedes,Villa Mercedes,South America,-65.48333,-33.683334
Argentina/Villa Nueva,Villa Nueva,South America,-63.247631,-32.43293
Argentina/Villa O'Higgins,Villa O'Higgins,South America,-72.560921,-48.46521
Argentina/Villa Ocampo,Villa Ocampo,South America,-59.355148,-28.48752
Argentina/Villa Ojo de Agua,Villa Ojo de Agua,South America,-63.693771,-29.500031
Argentina/Villa Olga,Villa Olga,South America,-62.150002,-38.716667
Argentina/Villa Paranacito,Villa Paranacito,South America,-58.657982,-33.72208
Argentina/Villa Paula de Sarmiento,Villa Paula de Sarmiento,South America,-68.538383,-31.493299
Argentina/Villa Reducción,Villa Reducción,South America,-63.862339,-33.20105
Argentina/Villa Regina,Villa Regina,South America,-67.066673,-39.099998
Argentina/Villa Reynolds,Villa Reynolds,South America,-65.383331,-33.733334
Argentina/Villa Rumipal,Villa Rumipal,South America,-64.48027,-32.187901
Argentina/Villa Santa Rita,Villa Santa Rita,South America,-58.480999,-34.610821
Argentina/Villa Trinidad,Villa Trinidad,South America,-61.875969,-30.213289
Argentina/Villa Tulumba,Villa Tulumba,South America,-64.122398,-30.395519
Argentina/Villa Urquiza,Villa Urquiza,South America,-60.374802,-31.64731
Argentina/Villa Valeria,Villa Valeria,South America,-64.920303,-34.340931
Argentina/Villa de Soto,Villa de Soto,South America,-64.999474,-30.85523
Argentina/Villa del Dique,Villa del Dique,South America,-64.455429,-32.17667
Argentina/Villa del Rosario,Villa del Rosario,South America,-57.912571,-30.79567
Argentina/Villa del Totoral,Villa del Totoral,South America,-63.716671,-30.816669
Argentina/Villa Ángela,Villa Ángela,South America,-60.71526,-27.57383
Argentina/Villaguay,Villaguay,South America,-59.02689,-31.865299
Argentina/Vinchina,Vinchina,South America,-68.206917,-28.75964
Argentina/Vista Alegre,Vista Alegre,South America,-68.183327,-38.75
Argentina/Wenceslao Escalante,Wenceslao Escalante,South America,-62.770779,-33.173031
Argentina/Winifreda,Winifreda,South America,-64.233879,-36.226429
Argentina/Yacimiento Río Turbio,Yacimiento Río Turbio,South America,-72.3508,-51.573212
Argentina/Yapeyú,Yapeyú,South America,-56.818409,-29.469139
Argentina/Yataity Calle,Yataity Calle,South America,-58.908459,-29.019131
Argentina/Yerba Buena,Yerba Buena,South America,-65.316673,-26.816669
Argentina/Yuto,Yuto,South America,-64.471939,-23.643419
Argentina/Zapala,Zapala,South America,-70.05442,-38.899158
Argentina/Zonda,Zonda,South America,-68.73333,-31.549999
Argentina/Zárate,Zárate,South America,-59.02858,-34.098141
Armenia/Karakishlag,Karakishlag,Asia,44.470001,40.130001
Armenia/Yerevan,Yerevan,Asia,44.466667,40.133335
Aruba/Coba Lodo,Coba Lodo,Caribbean,-69.949997,12.5
Aruba/Dacota,Dacota,Caribbean,-70.01667,12.5
Aruba/Jan Flemming,Jan Flemming,Caribbean,-69.966667,12.48333
Aruba/Macuarima,Macuarima,Caribbean,-69.966667,12.5
Aruba/Noord,Noord,Caribbean,-70.01667,12.56667
Aruba/Oranjestad,Oranjestad,Caribbean,-70.01667,12.5
Aruba/Paradera,Paradera,Caribbean,-70.0,12.53333
Aruba/Pos Abao,Pos Abao,Caribbean,-70.033333,12.53333
Aruba/Sabana Grandi,Sabana Grandi,Caribbean,-69.98333,12.5
Aruba/Shete,Shete,Caribbean,-69.933327,12.5
Aruba/Soledad,Soledad,Caribbean,-70.0,12.55
Ascension Island/Georgetown,Georgetown,Africa,-14.4,-7.966667
Australia/Australian Capital Territory/Canberra,Canberra,Oceania,149.199997,-35.316666
Australia/Australian Capital Territory/Gibraltar,Gibraltar,Oceania,149.100006,-35.299999
Australia/Australian Capital Territory/Gudgenby,Gudgenby,Oceania,148.96666,-35.75
Australia/Australian Capital Territory/Hall,Hall,Oceania,149.0,-35.299999
Australia/Australian Capital Territory/Tharwa,Tharwa,Oceania,148.96666,-35.580002
Australia/Australian Capital Territory/Yarrayumla,Yarrayumla,Oceania,149.100006,-35.299999
Australia/New South Wales/Adelong,Adelong,Oceania,148.050003,-35.310001
Australia/New South Wales/Arakoon,Arakoon,Oceania,153.083328,-30.92
Australia/New South Wales/Armidale,Armidale,Oceania,151.666672,-30.52
Australia/New South Wales/Ashley,Ashley,Oceania,149.833328,-29.48
Australia/New South Wales/Avalon Beach,Avalon Beach,Oceania,144.483337,-38.033333
Australia/New South Wales/Bairnkine,Bairnkine,Oceania,148.116669,-30.02
Australia/New South Wales/Balranald,Balranald,Oceania,143.550003,-34.639999
Australia/New South Wales/Bamarong,Bamarong,Oceania,150.53334,-34.950001
Australia/New South Wales/Banksmeadow,Banksmeadow,Oceania,151.166672,-33.939999
Australia/New South Wales/Bankstown,Bankstown,Oceania,150.949997,-33.916668
Australia/New South Wales/Baradine,Baradine,Oceania,149.050003,-30.950001
Australia/New South Wales/Barraba,Barraba,Oceania,150.600006,-30.379999
Australia/New South Wales/Bathurst,Bathurst,Oceania,149.649994,-33.416668
Australia/New South Wales/Beecroft Pen,Beecroft Pen,Oceania,150.800003,-35.099998
Australia/New South Wales/Bega,Bega,Oceania,149.816666,-36.68
Australia/New South Wales/Bellambi Point,Bellambi Point,Oceania,150.866669,-34.41
Australia/New South Wales/Bellingen,Bellingen,Oceania,152.899994,-30.450001
Australia/New South Wales/Berrima,Berrima,Oceania,150.399994,-34.490002
Australia/New South Wales/Blakehurst,Blakehurst,Oceania,150.983337,-33.919998
Australia/New South Wales/Bombala,Bombala,Oceania,149.233337,-36.91
Australia/New South Wales/Boomooderie,Boomooderie,Oceania,153.050003,-28.879999
Australia/New South Wales/Bourke,Bourke,Oceania,145.96666,-30.083334
Australia/New South Wales/Brewarrina,Brewarrina,Oceania,146.850006,-29.959999
Australia/New South Wales/Brocklehurst,Brocklehurst,Oceania,148.566666,-32.209999
Australia/New South Wales/Brodies Plains,Brodies Plains,Oceania,151.100006,-29.780001
Australia/New South Wales/Broken Hill,Broken Hill,Oceania,141.46666,-31.983334
Australia/New South Wales/Brooklana,Brooklana,Oceania,152.850006,-30.25
Australia/New South Wales/Bryon Bay,Bryon Bay,Oceania,153.616669,-28.639999
Australia/New South Wales/Budgewoi,Budgewoi,Oceania,151.566666,-33.279999
Australia/New South Wales/Bungendore,Bungendore,Oceania,149.116669,-35.27
Australia/New South Wales/Bunyan,Bunyan,Oceania,149.116669,-36.23
Australia/New South Wales/Camden,Camden,Oceania,150.683334,-34.040001
Australia/New South Wales/Campbelltown,Campbelltown,Oceania,150.816666,-34.080002
Australia/New South Wales/Camurra,Camurra,Oceania,149.899994,-29.5
Australia/New South Wales/Carrs Creek,Carrs Creek,Oceania,152.916672,-29.68
Australia/New South Wales/Casino,Casino,Oceania,153.066666,-28.883333
Australia/New South Wales/Cathundral,Cathundral,Oceania,147.949997,-31.99
Australia/New South Wales/Clergate,Clergate,Oceania,149.100006,-33.279999
Australia/New South Wales/Cobar,Cobar,Oceania,145.833328,-31.483334
Australia/New South Wales/Coffs Harbour,Coffs Harbour,Oceania,153.116669,-30.316668
Australia/New South Wales/Collarenebri,Collarenebri,Oceania,148.566666,-29.549999
Australia/New South Wales/Conargo,Conargo,Oceania,145.050003,-35.369999
Australia/New South Wales/Condobolin,Condobolin,Oceania,147.149994,-33.080002
Australia/New South Wales/Cooma,Cooma,Oceania,148.96666,-36.299999
Australia/New South Wales/Coonabarabran,Coonabarabran,Oceania,149.266663,-31.27
Australia/New South Wales/Coonamble,Coonamble,Oceania,148.366669,-30.98
Australia/New South Wales/Cootamundra,Cootamundra,Oceania,148.016663,-34.639999
Australia/New South Wales/Corowa,Corowa,Oceania,146.350006,-35.990002
Australia/New South Wales/Cowra,Cowra,Oceania,148.649994,-33.849998
Australia/New South Wales/Dahwilly,Dahwilly,Oceania,144.949997,-35.560001
Australia/New South Wales/Deniliquin,Deniliquin,Oceania,144.949997,-35.549999
Australia/New South Wales/Derriwong,Derriwong,Oceania,147.21666,-33.07
Australia/New South Wales/Dubbo,Dubbo,Oceania,148.566666,-32.216667
Australia/New South Wales/Dunedoo,Dunedoo,Oceania,149.399994,-32.02
Australia/New South Wales/Eglinton,Eglinton,Oceania,149.550003,-33.43
Australia/New South Wales/Engadine,Engadine,Oceania,150.96666,-34.049999
Australia/New South Wales/Forbes,Forbes,Oceania,148.0,-33.389999
Australia/New South Wales/Galston,Galston,Oceania,151.016663,-33.790001
Australia/New South Wales/Geehi,Geehi,Oceania,148.28334,-36.490002
Australia/New South Wales/Glen Innes,Glen Innes,Oceania,151.733337,-29.74
Australia/New South Wales/Glenhaven,Glenhaven,Oceania,151.0,-33.82
Australia/New South Wales/Gordon,Gordon,Oceania,151.116669,-33.77
Australia/New South Wales/Goulburn,Goulburn,Oceania,149.733337,-34.720001
Australia/New South Wales/Greenhill,Greenhill,Oceania,152.816666,-31.059999
Australia/New South Wales/Grenfell,Grenfell,Oceania,148.149994,-33.900002
Australia/New South Wales/Griffith,Griffith,Oceania,146.066666,-34.25
Australia/New South Wales/Gulgong,Gulgong,Oceania,149.516663,-32.369999
Australia/New South Wales/Gundagai,Gundagai,Oceania,148.100006,-35.080002
Australia/New South Wales/Gundaroo,Gundaroo,Oceania,149.199997,-35.310001
Australia/New South Wales/Gundy,Gundy,Oceania,150.916672,-32.060001
Australia/New South Wales/Gunnedah,Gunnedah,Oceania,150.25,-30.98
Australia/New South Wales/Hay,Hay,Oceania,144.850006,-34.52
Australia/New South Wales/Hillston,Hillston,Oceania,145.516663,-33.490002
Australia/New South Wales/Illewong,Illewong,Oceania,145.816666,-31.49
Australia/New South Wales/Iluka,Iluka,Oceania,153.350006,-29.43
Australia/New South Wales/Inverell,Inverell,Oceania,151.133331,-29.883333
Australia/New South Wales/Ivanhoe,Ivanhoe,Oceania,144.300003,-32.900002
Australia/New South Wales/Jerrys Plains,Jerrys Plains,Oceania,150.899994,-32.5
Australia/New South Wales/Jersey,Jersey,Oceania,145.800003,-31.5
Australia/New South Wales/Katoomba,Katoomba,Oceania,150.300003,-33.720001
Australia/New South Wales/Khancoban,Khancoban,Oceania,148.133331,-36.23
Australia/New South Wales/Kitchener,Kitchener,Oceania,151.350006,-32.810001
Australia/New South Wales/Koorainghat,Koorainghat,Oceania,152.46666,-31.9
Australia/New South Wales/Kororo Basin,Kororo Basin,Oceania,153.116669,-30.32
Australia/New South Wales/Ladysmith,Ladysmith,Oceania,147.449997,-35.16
Australia/New South Wales/Lake Cargelligo,Lake Cargelligo,Oceania,146.366669,-33.279999
Australia/New South Wales/Leeton,Leeton,Oceania,146.399994,-34.57
Australia/New South Wales/Lismore,Lismore,Oceania,153.25,-28.809999
Australia/New South Wales/Lithgow,Lithgow,Oceania,150.149994,-33.490002
Australia/New South Wales/Lockhart,Lockhart,Oceania,143.300003,-12.783334
Australia/New South Wales/Lostock,Lostock,Oceania,151.449997,-32.330002
Australia/New South Wales/Malebo,Malebo,Oceania,147.366669,-35.130001
Australia/New South Wales/Mangrove Mountain,Mangrove Mountain,Oceania,151.233337,-33.310001
Australia/New South Wales/Medowie,Medowie,Oceania,151.816666,-32.799999
Australia/New South Wales/Merimbula,Merimbula,Oceania,149.899994,-36.916668
Australia/New South Wales/Millthorpe,Millthorpe,Oceania,149.166672,-33.450001
Australia/New South Wales/Minmi,Minmi,Oceania,151.75,-32.91
Australia/New South Wales/Minto,Minto,Oceania,150.899994,-33.93
Australia/New South Wales/Molong,Molong,Oceania,148.850006,-33.099998
Australia/New South Wales/Moorland,Moorland,Oceania,152.766663,-31.083334
Australia/New South Wales/Moree,Moree,Oceania,149.850006,-29.466667
Australia/New South Wales/Morongla Creek,Morongla Creek,Oceania,148.699997,-33.900002
Australia/New South Wales/Moruya Heads,Moruya Heads,Oceania,150.149994,-35.91
Australia/New South Wales/Moss Vale,Moss Vale,Oceania,150.366669,-34.549999
Australia/New South Wales/Mount Victoria,Mount Victoria,Oceania,150.25,-33.599998
Australia/New South Wales/Mudgee,Mudgee,Oceania,149.566666,-32.59
Australia/New South Wales/Mugincoble,Mugincoble,Oceania,148.149994,-33.139999
Australia/New South Wales/Murrumbucca,Murrumbucca,Oceania,149.116669,-36.23
Australia/New South Wales/Murrurundi,Murrurundi,Oceania,150.833328,-31.77
Australia/New South Wales/Murwillumbah,Murwillumbah,Oceania,153.366669,-28.34
Australia/New South Wales/Mystery Bay,Mystery Bay,Oceania,150.21666,-36.259998
Australia/New South Wales/Naradhan,Naradhan,Oceania,146.316666,-33.619999
Australia/New South Wales/Narrabarba,Narrabarba,Oceania,150.050003,-37.259998
Australia/New South Wales/Narrabri,Narrabri,Oceania,149.75,-30.34
Australia/New South Wales/Narrandera,Narrandera,Oceania,146.550003,-34.740002
Australia/New South Wales/Narromine,Narromine,Oceania,148.233337,-32.216667
Australia/New South Wales/Nerriga,Nerriga,Oceania,150.083328,-35.119999
Australia/New South Wales/Newcastle,Newcastle,Oceania,151.800003,-32.919998
Australia/New South Wales/Noonbinna,Noonbinna,Oceania,148.649994,-33.849998
Australia/New South Wales/Nowra,Nowra,Oceania,150.53334,-34.950001
Australia/New South Wales/Nulty,Nulty,Oceania,145.933334,-30.09
Australia/New South Wales/Oakvale,Oakvale,Oceania,143.366669,-31.57
Australia/New South Wales/Oberon,Oberon,Oceania,149.866669,-33.720001
Australia/New South Wales/Orange,Orange,Oceania,149.133331,-33.383335
Australia/New South Wales/Paddys Flat,Paddys Flat,Oceania,152.449997,-28.76
Australia/New South Wales/Pambula,Pambula,Oceania,149.899994,-36.91
Australia/New South Wales/Parkes,Parkes,Oceania,148.233337,-33.133335
Australia/New South Wales/Paterson,Paterson,Oceania,151.583328,-32.630001
Australia/New South Wales/Peak Hill,Peak Hill,Oceania,148.183334,-32.720001
Australia/New South Wales/Penrith,Penrith,Oceania,150.699997,-33.799999
Australia/New South Wales/Perisher Valley,Perisher Valley,Oceania,148.399994,-36.41
Australia/New South Wales/Port Kembla,Port Kembla,Oceania,150.899994,-34.48
Australia/New South Wales/Port Macquarie,Port Macquarie,Oceania,152.916672,-31.440001
Australia/New South Wales/Porters Retreat,Porters Retreat,Oceania,149.833328,-34.009998
Australia/New South Wales/Quandialla,Quandialla,Oceania,147.78334,-34.009998
Australia/New South Wales/Richmond,Richmond,Oceania,150.78334,-33.599998
Australia/New South Wales/Scone,Scone,Oceania,150.866669,-32.049999
Australia/New South Wales/Scotland Island,Scotland Island,Oceania,151.199997,-33.860001
Australia/New South Wales/Spring Hill,Spring Hill,Oceania,149.116669,-33.380001
Australia/New South Wales/Stephens Creek,Stephens Creek,Oceania,141.46666,-31.98
Australia/New South Wales/Sutton,Sutton,Oceania,149.100006,-35.299999
Australia/New South Wales/Sydney,Sydney,Oceania,151.166672,-33.933334
Australia/New South Wales/Tamworth,Tamworth,Oceania,150.850006,-31.083334
Australia/New South Wales/Taralga,Taralga,Oceania,149.816666,-34.41
Australia/New South Wales/Tenterfield,Tenterfield,Oceania,152.016663,-29.049999
Australia/New South Wales/Terrey Hills,Terrey Hills,Oceania,151.149994,-33.830002
Australia/New South Wales/The Risk,The Risk,Oceania,152.916672,-28.48
Australia/New South Wales/Thredbo Village,Thredbo Village,Oceania,148.300003,-36.509998
Australia/New South Wales/Thurgoona,Thurgoona,Oceania,146.916672,-36.07
Australia/New South Wales/Tibooburra,Tibooburra,Oceania,142.0,-29.440001
Australia/New South Wales/Tocumwal,Tocumwal,Oceania,145.583328,-35.810001
Australia/New South Wales/Towrang,Towrang,Oceania,149.866669,-34.75
Australia/New South Wales/Tullamore,Tullamore,Oceania,147.566666,-32.630001
Australia/New South Wales/Tumbarumba,Tumbarumba,Oceania,148.0,-35.779999
Australia/New South Wales/Tyalgum,Tyalgum,Oceania,153.199997,-28.360001
Australia/New South Wales/Urbenville,Urbenville,Oceania,152.550003,-28.469999
Australia/New South Wales/Wagga,Wagga,Oceania,147.46666,-35.166668
Australia/New South Wales/Walgett,Walgett,Oceania,148.166672,-30.033333
Australia/New South Wales/Warral,Warral,Oceania,150.850006,-31.09
Australia/New South Wales/Wellington,Wellington,Oceania,148.933334,-32.560001
Australia/New South Wales/Wentworth,Wentworth,Oceania,141.899994,-34.110001
Australia/New South Wales/West Hoxton,West Hoxton,Oceania,150.916672,-33.82
Australia/New South Wales/White Cliffs,White Cliffs,Oceania,143.083328,-30.85
Australia/New South Wales/Whiterock,Whiterock,Oceania,149.550003,-33.419998
Australia/New South Wales/Whittingham,Whittingham,Oceania,151.166672,-32.610001
Australia/New South Wales/Wilcannia,Wilcannia,Oceania,143.383331,-31.549999
Australia/New South Wales/Williamsdale,Williamsdale,Oceania,148.949997,-35.630001
Australia/New South Wales/Williamtown,Williamtown,Oceania,151.833328,-32.799999
Australia/New South Wales/Windsor,Windsor,Oceania,150.766663,-33.599998
Australia/New South Wales/Wollongong,Wollongong,Oceania,150.866669,-34.43
Australia/New South Wales/Woolbrook,Woolbrook,Oceania,151.333328,-30.969999
Australia/New South Wales/Wumbulgal,Wumbulgal,Oceania,146.066666,-34.32
Australia/New South Wales/Wyalong,Wyalong,Oceania,147.233337,-33.93
Australia/New South Wales/Yarras,Yarras,Oceania,152.25,-31.389999
Australia/New South Wales/Yass,Yass,Oceania,148.899994,-34.830002
Australia/New South Wales/Young,Young,Oceania,148.300003,-34.32
Australia/Northern Territory/Alice Springs,Alice Springs,Oceania,133.883331,-23.816668
Australia/Northern Territory/Alyangula,Alyangula,Oceania,136.416672,-13.85
Australia/Northern Territory/Angurugu,Angurugu,Oceania,136.416672,-13.98
Australia/Northern Territory/Bagot,Bagot,Oceania,130.866669,-12.42
Australia/Northern Territory/Barrow Creek,Barrow Creek,Oceania,133.883331,-21.530001
Australia/Northern Territory/Birdum,Birdum,Oceania,133.199997,-15.58
Australia/Northern Territory/Bond Springs,Bond Springs,Oceania,133.866669,-23.709999
Australia/Northern Territory/Borroloola,Borroloola,Oceania,136.300003,-16.07
Australia/Northern Territory/Brunette Downs,Brunette Downs,Oceania,135.949997,-18.639999
Australia/Northern Territory/Camfield,Camfield,Oceania,130.866669,-17.379999
Australia/Northern Territory/Cape Don,Cape Don,Oceania,131.766663,-11.32
Australia/Northern Territory/Charlotte Waters,Charlotte Waters,Oceania,134.916672,-25.933332
Australia/Northern Territory/Curtin Springs,Curtin Springs,Oceania,131.75,-25.32
Australia/Northern Territory/Daly Waters,Daly Waters,Oceania,133.383331,-16.266666
Australia/Northern Territory/Darwin,Darwin,Oceania,130.883331,-12.433333
Australia/Northern Territory/Dunmara,Dunmara,Oceania,133.366669,-16.27
Australia/Northern Territory/Elcho Island,Elcho Island,Oceania,135.550003,-12.03
Australia/Northern Territory/Elizabeth Downs,Elizabeth Downs,Oceania,130.666672,-13.74
Australia/Northern Territory/Elliott,Elliott,Oceania,133.53334,-17.559999
Australia/Northern Territory/Eva Valley,Eva Valley,Oceania,132.266663,-14.44
Australia/Northern Territory/Finke,Finke,Oceania,134.566666,-25.58
Australia/Northern Territory/Garden Point Mission,Garden Point Mission,Oceania,130.416672,-11.4
Australia/Northern Territory/Gove,Gove,Oceania,136.816666,-12.28
Australia/Northern Territory/Hidden Valley,Hidden Valley,Oceania,133.366669,-16.26
Australia/Northern Territory/Jervols,Jervols,Oceania,136.133331,-22.950001
Australia/Northern Territory/Kulgera,Kulgera,Oceania,133.300003,-25.84
Australia/Northern Territory/Manangoora,Manangoora,Oceania,136.800003,-15.74
Australia/Northern Territory/Manbulloo,Manbulloo,Oceania,132.25,-14.48
Australia/Northern Territory/Maningrida,Maningrida,Oceania,134.21666,-12.05
Australia/Northern Territory/McArthur River,McArthur River,Oceania,136.066666,-16.440001
Australia/Northern Territory/Milingimbi Mission,Milingimbi Mission,Oceania,134.899994,-12.12
Australia/Northern Territory/Minjilang,Minjilang,Oceania,132.550003,-11.15
Australia/Northern Territory/Mount Ertwa,Mount Ertwa,Oceania,133.866669,-23.809999
Australia/Northern Territory/Newcastle Waters,Newcastle Waters,Oceania,133.399994,-17.379999
Australia/Northern Territory/Nhulunbuy,Nhulunbuy,Oceania,136.75,-12.2
Australia/Northern Territory/Oenpelli,Oenpelli,Oceania,133.050003,-12.33
Australia/Northern Territory/Orlando,Orlando,Oceania,134.166672,-19.639999
Australia/Northern Territory/Parap,Parap,Oceania,130.800003,-12.4
Australia/Northern Territory/Phillip Creek,Phillip Creek,Oceania,134.183334,-19.629999
Australia/Northern Territory/Ringwood,Ringwood,Oceania,134.949997,-23.83
Australia/Northern Territory/Tanami,Tanami,Oceania,130.016663,-20.190001
Australia/Northern Territory/Tennant Creek,Tennant Creek,Oceania,134.183334,-19.633333
Australia/Northern Territory/Timber Creek,Timber Creek,Oceania,130.46666,-15.66
Australia/Northern Territory/Urapunga,Urapunga,Oceania,134.516663,-14.74
Australia/Northern Territory/Victoria River Downs,Victoria River Downs,Oceania,131.0,-16.4
Australia/Northern Territory/Warruwi,Warruwi,Oceania,133.383331,-11.65
Australia/Northern Territory/Wave Hill,Wave Hill,Oceania,130.949997,-17.5
Australia/Northern Territory/Wave Hill - New Station,Wave Hill - New Station,Oceania,131.116669,-17.389999
Australia/Northern Territory/Wonarah,Wonarah,Oceania,136.333328,-19.9
Australia/Northern Territory/Yirrkala Mission,Yirrkala Mission,Oceania,136.866669,-12.25
Australia/Northern Territory/Yuendumu,Yuendumu,Oceania,131.800003,-22.26
Australia/Queensland/Adavale,Adavale,Oceania,144.600006,-25.92
Australia/Queensland/Airlie,Airlie,Oceania,148.949997,-20.35
Australia/Queensland/Alderley,Alderley,Oceania,139.899994,-22.91
Australia/Queensland/Aloomba,Aloomba,Oceania,146.0,-16.93
Australia/Queensland/Amberley,Amberley,Oceania,152.699997,-27.639999
Australia/Queensland/Applethorpe,Applethorpe,Oceania,151.949997,-28.620001
Australia/Queensland/Bagara,Bagara,Oceania,152.350006,-24.866667
Australia/Queensland/Baralaba,Baralaba,Oceania,149.800003,-24.18
Australia/Queensland/Barcaldine,Barcaldine,Oceania,145.28334,-23.549999
Australia/Queensland/Barmaryee,Barmaryee,Oceania,150.71666,-23.1
Australia/Queensland/Belmont,Belmont,Oceania,153.016663,-27.48
Australia/Queensland/Bemerside,Bemerside,Oceania,146.166672,-18.65
Australia/Queensland/Birdsville,Birdsville,Oceania,139.350006,-25.9
Australia/Queensland/Blackall,Blackall,Oceania,145.46666,-24.42
Australia/Queensland/Bollon,Bollon,Oceania,147.46666,-28.030001
Australia/Queensland/Boodua,Boodua,Oceania,151.733337,-27.41
Australia/Queensland/Boonooroo,Boonooroo,Oceania,153.183334,-25.93
Australia/Queensland/Boulia,Boulia,Oceania,139.78334,-22.916666
Australia/Queensland/Bowen,Bowen,Oceania,148.25,-20.02
Australia/Queensland/Brisbane,Brisbane,Oceania,153.116669,-27.383333
Australia/Queensland/Builyan,Builyan,Oceania,151.46666,-24.530001
Australia/Queensland/Bulwer,Bulwer,Oceania,153.46666,-27.030001
Australia/Queensland/Bundaberg,Bundaberg,Oceania,152.316666,-24.9
Australia/Queensland/Burketown,Burketown,Oceania,139.550003,-17.74
Australia/Queensland/Burua,Burua,Oceania,151.25,-23.860001
Australia/Queensland/Caboonbah,Caboonbah,Oceania,152.550003,-27.120001
Australia/Queensland/Cairns,Cairns,Oceania,145.75,-16.883333
Australia/Queensland/Caloundra,Caloundra,Oceania,153.149994,-26.799999
Australia/Queensland/Cannonvale,Cannonvale,Oceania,148.883331,-20.059999
Australia/Queensland/Cardwell,Cardwell,Oceania,146.016663,-18.26
Australia/Queensland/Carnarvon Gorge,Carnarvon Gorge,Oceania,113.666664,-24.883333
Australia/Queensland/Cedar Grove,Cedar Grove,Oceania,153.0,-27.83
Australia/Queensland/Charleville,Charleville,Oceania,146.266663,-26.416666
Australia/Queensland/Charlotte Plains,Charlotte Plains,Oceania,145.96666,-28.1
Australia/Queensland/Charters Towners,Charters Towners,Oceania,146.25,-20.08
Australia/Queensland/Clayton,Clayton,Oceania,152.316666,-24.91
Australia/Queensland/Clermont,Clermont,Oceania,147.633331,-22.83
Australia/Queensland/Cleveland,Cleveland,Oceania,153.25,-27.530001
Australia/Queensland/Cloncurry,Cloncurry,Oceania,140.516663,-20.666666
Australia/Queensland/Coen,Coen,Oceania,143.199997,-13.94
Australia/Queensland/Collinsville,Collinsville,Oceania,147.850006,-20.549999
Australia/Queensland/Cooktown,Cooktown,Oceania,145.183334,-15.45
Australia/Queensland/Coolangatta,Coolangatta,Oceania,153.5,-28.166666
Australia/Queensland/Cramsie,Cramsie,Oceania,144.25,-23.450001
Australia/Queensland/Croydon,Croydon,Oceania,142.233337,-18.209999
Australia/Queensland/Cunnamulla,Cunnamulla,Oceania,145.666672,-28.07
Australia/Queensland/Dalby,Dalby,Oceania,151.25,-27.18
Australia/Queensland/Donors Hill,Donors Hill,Oceania,140.550003,-18.709999
Australia/Queensland/Downsfield,Downsfield,Oceania,152.816666,-26.0
Australia/Queensland/El Arish,El Arish,Oceania,145.96666,-17.530001
Australia/Queensland/Elgin Downs,Elgin Downs,Oceania,146.949997,-21.950001
Australia/Queensland/Emerald,Emerald,Oceania,148.149994,-23.530001
Australia/Queensland/Endeavour,Endeavour,Oceania,145.183334,-15.45
Australia/Queensland/Foxdale,Foxdale,Oceania,148.566666,-20.4
Australia/Queensland/Gayndah,Gayndah,Oceania,151.600006,-25.629999
Australia/Queensland/Georgetown,Georgetown,Oceania,143.550003,-18.290001
Australia/Queensland/Gladstone,Gladstone,Oceania,151.266663,-23.85
Australia/Queensland/Goondiwindi,Goondiwindi,Oceania,150.300003,-28.549999
Australia/Queensland/Gracemere,Gracemere,Oceania,150.5,-23.4
Australia/Queensland/Great Barrier Reef Marine Park,Great Barrier Reef Marine Park,Oceania,143.116669,-13.766666
Australia/Queensland/Greenhills,Greenhills,Oceania,145.25,-15.46
Australia/Queensland/Gympie,Gympie,Oceania,152.633331,-26.16
Australia/Queensland/Hammond,Hammond,Oceania,142.199997,-10.59
Australia/Queensland/Heron Island,Heron Island,Oceania,151.916672,-23.450001
Australia/Queensland/Horn Island,Horn Island,Oceania,142.300003,-10.583333
Australia/Queensland/Hughenden,Hughenden,Oceania,144.199997,-20.84
Australia/Queensland/Imbil,Imbil,Oceania,152.666672,-26.459999
Australia/Queensland/Ingham,Ingham,Oceania,146.149994,-18.666666
Australia/Queensland/Injune,Injune,Oceania,148.566666,-25.84
Australia/Queensland/Innisfail,Innisfail,Oceania,146.016663,-17.52
Australia/Queensland/Ipswich,Ipswich,Oceania,152.71666,-27.65
Australia/Queensland/Isisford,Isisford,Oceania,144.433334,-24.26
Australia/Queensland/Iveragh,Iveragh,Oceania,151.766663,-24.02
Australia/Queensland/Jabaroo Outstation,Jabaroo Outstation,Oceania,143.100006,-13.76
Australia/Queensland/Julia Creek,Julia Creek,Oceania,141.733337,-20.66
Australia/Queensland/Kalpowar,Kalpowar,Oceania,151.300003,-24.690001
Australia/Queensland/Kilcoy,Kilcoy,Oceania,152.550003,-27.030001
Australia/Queensland/Kingaroy,Kingaroy,Oceania,151.850006,-26.549999
Australia/Queensland/Lady Elliot Island,Lady Elliot Island,Oceania,152.699997,-24.120001
